     2.11           OBSERVATION DATA    M (MIXED)           RINEX VERSION / TYPE
teqc  2015Nov6      Yury Kirienko       20160317 14:08:41UTCPGM / RUN BY / DATE
Linux 2.4.21-27.ELsmp|Opteron|gcc|Linux x86_64|=+           COMMENT
TPS2RIN&BALRNX      RIGTC, GO PECNY     20160102 000302     COMMENT
GNSS DATA FROM STATION GOPE (RIGTC, GO PECNY)               COMMENT
GOPE                                                        MARKER NAME
11502M002                                                   MARKER NUMBER
PC GOPDL10          RIGTC, GO PECNY                         OBSERVER / AGENCY
01308               TPS NETG3           4.0 Dec,21,2012 p1  REC # / TYPE / VERS
30161               TPSCR.G3        TPSH                    ANT # / TYPE
  3979316.4389  1050312.2534  4857066.9036                  APPROX POSITION XYZ
        0.1114        0.0000        0.0000                  ANTENNA: DELTA H/E/N
     1     1                                                WAVELENGTH FACT L1/2
     8    C1    P1    P2    C2    L1    L2    S1    S2      # / TYPES OF OBSERV
  1800.0000                                                 INTERVAL
Forced Modulo Decimation to 1800 seconds                    COMMENT
teqc edited: all NAVSTAR GPS satellites excluded            COMMENT
  2016     1     1     0     0    0.0000000     GPS         TIME OF FIRST OBS
    17                                                      LEAP SECONDS
                                                            END OF HEADER
 16  1  1  0  0  0.0000000  0  7R06R12R13R14R22R23R24
  23703495.825    23703495.032                                   126486415.454 5
                        35.000
  22229053.323    22229051.868    22229054.697    22229052.526   118743637.583 6
  92356153.685 4        41.000          30.000
  19220283.801    19220282.204    19220281.545    19220282.235   102635252.563 7
  79827412.085 6        46.000          41.000
  20895285.345    20895285.736    20895284.523    20895285.505   111383635.419 6
  86631722.382 4        42.000          31.000
  21850308.661    21850307.786    21850305.505    21850306.442   116638455.601 7
  90718801.167 4        47.000          33.000
  19177983.675    19177982.894    19177985.924    19177984.093   102589303.569 8
  79791691.827 5        52.000          36.000
  21153578.259    21153576.765    21153577.270    21153577.124   113117704.852 6
  87980437.949 4        43.000          31.000
 16  1  1  0 30  0.0000000  0  8R06R07R13R14R15R22R23R24
  23572382.180    23572380.084                                   125786742.903 6
                        42.000
  23943919.081    23943918.056    23943919.892    23943918.780   128173669.983 4
  99690634.086 3        34.000          27.000
  19726566.661    19726564.622    19726564.364    19726565.323   105338772.302 7
  81930148.971 6        46.000          40.000
  19934787.958    19934788.038    19934787.916    19934787.532   106263644.976 7
  82649507.844 4        46.000          33.000
  23471662.931    23471660.270    23471664.725    23471661.456   125425436.290 5
  97553128.931 3        38.000          25.000
  23179015.652    23179012.476    23179015.720    23179013.667   123731179.376 6
  96235362.335 3        43.000          28.000
  19438257.098    19438256.346    19438258.423    19438256.939   103981592.072 8
  80874583.007 5        53.000          35.000
  20172055.530    20172053.570    20172051.930    20172053.957   107869069.913 7
  83898169.738 4        46.000          34.000
 16  1  1  1  0  0.0000000  0  6R07R13R14R15R23R24
  23292966.807    23292966.979    23292967.380    23292968.544   124689059.540 5
  96980381.081 3        37.000          29.000
  20677165.112    20677163.482    20677164.298    20677164.382   110414910.203 7
  85878254.683 5        46.000          37.000
  19377221.932    19377222.511    19377221.068    19377221.765   103291504.259 7
  80337842.846 5        46.000          35.000
  22112605.259    22112604.001    22112604.491    22112604.550   118163053.683 6
  91904611.712 4        44.000          32.000
  20081890.480    20081889.720    20081892.195    20081891.093   107424597.349 8
  83552475.900 4        52.000          34.000
  19546721.700    19546719.808    19546718.988    19546719.329   104525133.536 7
  81297331.317 5        47.000          36.000
 16  1  1  1 30  0.0000000  0  7R07R08R13R14R15R23R24
  23111704.657    23111704.137    23111705.884    23111704.438   123718754.375 5
  96225699.427 4        39.000          30.000
  23283170.492    23283172.096    23283169.557    23283170.470   124680331.403 5
  96973588.789 3        38.000          27.000
  21975408.553    21975405.990    21975407.000    21975407.326   117347441.328 6
  91270220.349 4        42.000          33.000
  19334373.416    19334374.107    19334372.765    19334373.427   103063100.547 7
  80160195.293 4        46.000          34.000
  20979721.517    20979720.107    20979720.293    20979721.260   112109271.364 7
  87196115.290 5        48.000          35.000
  21002616.360    21002615.426    21002617.384    21002616.525   112349857.816 7
  87383233.844 4        49.000          31.000
  19303746.693    19303745.279    19303743.513    19303744.073   103225839.435 7
  80286769.470 5        46.000          36.000
 16  1  1  2  0  0.0000000  0  8R01R07R08R13R14R15R23R24
  23823670.348    23823668.844                                   127351173.429 5
                        38.000
  23443430.636    23443430.473    23443431.200    23443430.721   125494509.974 5
  97606842.299 3        36.000          29.000
  22539762.108    22539763.678    22539760.931    22539760.599   120699414.483 6
  93877320.894 4        42.000          31.000
  23486375.959    23486372.705    23486373.424    23486375.738   125415918.567 4
  97545700.925 3        33.000          26.000
  19841787.449    19841788.185    19841786.510    19841786.719   105767895.886 7
  82263924.390 4        47.000          33.000
  20228088.194    20228086.988    20228087.883    20228088.246   108092771.072 8
  84072170.747 5        50.000          38.000
  22094453.959    22094453.384    22094454.884    22094453.429   118190445.927 7
  91925913.316 3        47.000          27.000
  19424946.070    19424945.003    19424943.661    19424944.474   103873946.220 7
  80790852.482 5        47.000          36.000
 16  1  1  2 30  0.0000000  0  7R01R08R14R15R16R18R24
  22616312.347    22616311.744    22616314.071    22616313.187   120897165.319 6
  94031128.013 3        44.000          27.000
  22263363.231    22263364.586    22263358.799    22263358.952   119219304.608 7
  92726124.192 4        45.000          32.000
  20839579.428    20839580.381    20839578.652    20839578.306   111086682.768 6
  86400757.123 4        44.000          30.000
  19985370.376    19985369.116    19985369.890    19985370.308   106795761.596 8
  83063385.608 5        50.000          39.000
  23257020.684    23257021.128    23257018.439    23257017.754   124234825.425 5
  96627091.840 3        37.000          27.000
  24120116.833    24120115.942    24120114.610    24120116.937   128754806.886 5
 100142633.358 3        39.000          25.000
  19859502.951    19859501.693    19859500.611    19859500.818   106197715.542 7
  82598228.657 5        47.000          35.000
 16  1  1  3  0  0.0000000  0  8R01R02R08R14R15R16R18R24
  21710317.145    21710315.687    21710318.258    21710317.161   116054106.670 7
  90264306.090 3        47.000          29.000
  23788047.069    23788046.021    23788043.869    23788046.359   126937574.917 5
  98729222.038 1        36.000           9.000
  22515728.452    22515730.127    22515726.048    22515725.621   120570705.857 7
  93777213.623 4        45.000          31.000
  22192455.771    22192456.503    22192454.229                   118298264.194 5
  92009763.573 3        39.000          26.000
  20305287.009    20305285.486    20305286.377    20305287.602   108505297.723 8
  84393024.732 5        50.000          38.000
  22090157.603    22090158.102    22090155.756    22090154.982   118001663.166 7
  91779079.330 4        45.000          31.000
  22963812.639    22963811.030    22963810.403    22963812.103   122582410.962 6
  95341886.994 4        43.000          30.000
  20542898.252    20542896.823    20542896.118    20542896.076   109852141.510 7
  85440560.088 4        45.000          33.000
 16  1  1  3 30  0.0000000  0  8R01R02R08R14R15R16R18R24
  21260842.006    21260840.779    21260842.576    21260839.770   113651403.168 7
  88395536.817 4        49.000          30.000
  22389879.287    22389879.480    22389878.746    22389879.001   119476703.983 6
  92926324.268 4        43.000          31.000
  23263694.324    23263694.071    23263695.059    23263695.580   124576035.044 6
  96892469.188 4        40.000          30.000
  23730640.002    23730640.851                                   126497659.979 4
                        33.000
  21141730.480    21141728.193    21141731.119    21141731.084   112974998.426 7
  87869458.086 5        47.000          36.000
  21328418.844    21328417.935    21328417.606    21328416.897   113932590.750 7
  88614246.007 4        48.000          34.000
  21905793.323    21905792.908    21905791.143    21905791.068   116934629.385 7
  90949169.256 4        48.000          33.000
  21413476.715    21413474.956    21413473.048    21413475.335   114507517.214 6
  89061407.745 4        42.000          30.000
 16  1  1  4  0  0.0000000  0  6R01R02R15R16R18R24
  21355047.489    21355046.034    21355048.913    21355046.967   114154988.111 7
  88787213.938 4        48.000          30.000
  21203355.632    21203354.411    21203353.562    21203353.828   113145181.837 7
  88001807.626 5        49.000          35.000
  22363793.676    22363793.721    22363794.172    22363794.556   119505328.531 6
  92948601.881 4        42.000          31.000
  21093402.110    21093401.377    21093399.314    21093399.676   112677176.550 7
  87637812.899 4        49.000          34.000
  20977232.398    20977231.719    20977230.670    20977230.959   111977912.032 8
  87093944.725 5        51.000          36.000
  22420957.724    22420957.893    22420953.084    22420953.935   119894966.482 5
  93251645.840 3        38.000          27.000
 16  1  1  4 30  0.0000000  0  8R01R02R03R09R15R16R18R24
  21982568.006    21982567.196    21982567.916    21982567.132   117509444.414 7
  91396235.282 3        45.000          28.000
  20400300.102    20400299.663    20400296.143    20400297.389   108859925.936 8
  84668831.323 5        51.000          38.000
  22812079.080    22812079.484    22812078.829    22812077.075   122114843.909 6
  94978210.888 4        40.000          31.000
  22492869.226    22492867.688                                   120110647.112 5
                        39.000
  23797776.554    23797776.982    23797779.410    23797780.260   127168100.742 5
  98908534.985 3        35.000          27.000
  21422053.263    21422051.367    21422052.323    21422051.528   114432773.326 7
  89003276.996 4        47.000          33.000
  20213283.362    20213282.213    20213281.293    20213281.837   107899903.826 8
  83922160.638 5        52.000          38.000
  23526922.182    23526922.215    23526920.991    23526921.499   125809052.922 4
  97851489.187 3        34.000          25.000
 16  1  1  5  0  0.0000000  0  7R01R02R03R09R16R18R19
  23043282.111    23043279.820    23043282.827    23043281.630   123179572.912 6
  95806335.035 3        42.000          26.000
  20109250.821    20109249.626    20109246.281    20109247.819   107306830.809 8
  83460868.689 5        52.000          38.000
  21411771.939    21411772.177    21411769.129    21411769.371   114618897.181 6
  89148031.364 5        44.000          35.000
  22149321.810    22149320.370    22149318.007                   118276126.992 6
  91992554.149 2        41.000          24.000
  22248038.172    22248037.200    22248036.845    22248035.603   118845032.249 6
  92435033.429 4        43.000          31.000
  19656987.353    19656986.333    19656985.309    19656985.208   104930357.091 8
  81612513.205 6        52.000          40.000
  23413885.850    23413884.797    23413882.408    23413883.281   125248499.229 6
  97415500.828 3        42.000          28.000
 16  1  1  5 30  0.0000000  0  7R02R03R09R10R16R18R19
  20374450.151    20374449.651    20374447.857    20374447.046   108721984.576 8
  84561543.695 5        52.000          38.000
  20297130.224    20297130.228    20297128.459    20297128.644   108652134.295 7
  84507216.382 5        48.000          39.000
  22345675.585    22345674.867                                   119324644.331 6
                        40.000
  23410911.773    23410912.479    23410914.212                   124793345.798 5
  97061483.634 2        39.000          22.000
  23424519.498    23424519.731    23424519.040    23424518.205   125129574.842 6
  97323008.887 3        41.000          27.000
  19358611.147    19358610.104    19358609.557    19358609.618   103337604.800 8
  80373705.847 6        53.000          40.000
  22251416.404    22251414.823    22251412.914    22251413.448   119030068.482 7
  92578944.068 4        47.000          33.000
 16  1  1  6  0  0.0000000  0  7R02R03R04R09R10R18R19
  21141838.067    21141837.376    21141835.740    21141834.709   112816912.302 7
  87746487.185 5        49.000          36.000
  19614050.537    19614051.076    19614049.894    19614048.719   104995556.155 7
  81663211.468 6        48.000          41.000
  22409628.499    22409630.479    22409625.982    22409625.601   120002585.292 6
  93335309.590 4        43.000          32.000
  23034481.997    23034481.266                                   123002835.266 5
                        38.000
  22934208.022    22934207.915    22934206.805                   122252244.624 6
  95085072.279 3        43.000          25.000
  19368098.481    19368097.639    19368097.328    19368096.765   103388248.424 8
  80413095.206 6        52.000          40.000
  21163905.580    21163904.115    21163903.170    21163904.164   113212623.450 8
  88054264.793 5        50.000          36.000
 16  1  1  6 30  0.0000000  0  7R02R03R04R09R10R18R19
  22284806.842    22284806.013    22284805.060    22284805.941   118916013.791 6
  92490231.873 4        44.000          32.000
  19450420.958    19450421.666    19450420.080    19450418.797   104119632.719 8
  80981937.257 6        50.000          42.000
  21040367.613    21040368.447    21040366.162    21040365.133   112670260.972 8
  87632391.671 5        50.000          37.000
  24086362.526    24086361.499                                   128619815.577 5
                        35.000
  22987839.685    22987839.719    22987840.167    22987842.498   122538133.813 6
  95307430.604 3        43.000          25.000
  19721332.609    19721332.233    19721331.005    19721331.184   105273832.028 8
  81879659.408 6        53.000          40.000
  20229120.963    20229120.391    20229118.124    20229118.495   108212158.889 8
  84165014.436 5        52.000          39.000
 16  1  1  7  0  0.0000000  0  8R02R03R04R10R11R18R19R20
  23649705.561    23649704.458                                   126199368.510 5
                        35.000
  19807596.853    19807597.347    19807595.403    19807594.971   106031618.613 8
  82469036.495 6        50.000          41.000
  19972239.811    19972241.127    19972237.800    19972237.413   106950485.965 8
  83183677.320 6        52.000          41.000
  23551357.967    23551359.695                                   125542004.204 6
                        41.000
  23532720.012    23532716.822                                   125751720.722 5
                        39.000
  20425343.684    20425342.535    20425343.885    20425343.208   109031883.125 8
  84802585.403 5        51.000          38.000
  19545671.928    19545670.895    19545670.272    19545670.418   104556163.108 8
  81321461.343 6        53.000          41.000
  23221771.249    23221769.779    23221770.403    23221771.851   124177251.581 5
  96582306.563 3        35.000          29.000
 16  1  1  7 30  0.0000000  0  7R03R04R05R11R18R19R20
  20604216.857    20604217.789    20604214.978    20604215.027   110295979.120 7
  85785759.883 5        49.000          39.000
  19315249.395    19315250.273    19315247.222    19315247.048   103432331.150 8
  80447334.660 6        53.000          42.000
  22553386.301    22553386.268    22553385.684    22553384.509   120560782.866 6
  93769490.431 3        41.000          29.000
  23547186.021    23547183.792                                   125829017.683 5
                        37.000
  21449761.451    21449760.337    21449761.250    21449761.360   114500276.721 7
  89055776.199 5        49.000          35.000
  19217852.398    19217851.399    19217850.267    19217850.356   102802545.164 8
  79957535.187 6        52.000          41.000
  21928597.742    21928595.724    21928597.175    21928598.096   117262060.711 6
  91203823.526 4        41.000          34.000
 16  1  1  8  0  0.0000000  0  6R03R04R05R18R19R20
  21711009.344    21711010.363    21711005.898    21711007.145   116220716.846 7
  90393887.130 5        46.000          35.000
  19124216.729    19124217.883    19124215.294    19124214.810   102409357.877 8
  79651688.116 6        51.000          42.000
  21272093.399    21272092.871    21272093.723    21272094.311   113711552.401 6
  88442313.024 4        44.000          33.000
  22728525.229    22728524.198    22728527.403    22728525.826   121326359.242 7
  94364941.823 4        45.000          31.000
  19327642.655    19327641.484    19327640.929    19327641.970   103389844.377 8
  80414321.950 6        52.000          41.000
  20785578.414    20785577.170    20785579.387    20785579.724   111149823.624 7
  86449860.227 5        45.000          38.000
 16  1  1  8 30  0.0000000  0  8R03R04R05R12R18R19R20R21
  22991779.182    22991780.113    22991779.816    22991778.997   123076778.174 5
  95726377.367 4        39.000          30.000
  19384436.895    19384438.031    19384435.356    19384435.313   103802823.346 8
  80735494.221 6        52.000          42.000
  20259386.820    20259386.305    20259386.728    20259385.213   108298057.941 7
  84231818.743 5        47.000          36.000
  23526516.273    23526514.595                                   125674431.954 5
                        39.000
  24169731.658    24169734.150                                   129019589.325 3
                        25.000
  19903816.562    19903815.860    19903815.867    19903815.978   106471979.631 8
  82811536.569 6        52.000          40.000
  19926674.647    19926673.459    19926674.658    19926676.201   106556873.753 7
  82877565.583 6        47.000          41.000
  23619152.741    23619153.698                                   126390863.027 6
                        40.000
 16  1  1  9  0  0.0000000  0  7R04R05R06R13R19R20R21
  20022155.379    20022156.740    20022153.847    20022153.346   107217768.699 8
  83391561.660 6        53.000          40.000
  19585244.596    19585243.239    19585244.410    19585242.791   104694383.756 7
  81428961.523 5        48.000          38.000
  23560280.256    23560280.008                                   125722187.027 6
                        42.000
  23156416.232    23156413.300    23156413.651                   123653957.481 5
  96175308.548 3        36.000          27.000
  20906288.318    20906287.813    20906288.304    20906288.562   111834519.903 8
  86982398.775 5        50.000          37.000
  19486129.652    19486128.274    19486130.380    19486131.233   104201081.609 7
  81045282.088 6        46.000          42.000
  22240360.057    22240359.937    22240359.253    22240361.198   119012658.954 7
  92565397.099 4        47.000          33.000
 16  1  1  9 30  0.0000000  0  8R04R05R06R13R14R19R20R21
  20933924.330    20933924.809    20933922.617    20933922.424   112100247.729 7
  87189043.695 5        49.000          37.000
  19280846.378    19280845.765    19280847.068    19280845.850   103067202.266 7
  80163375.675 5        47.000          39.000
  22328626.544    22328625.334    22328624.128    22328624.289   119149861.651 7
  92672099.154 3        46.000          26.000
  22967257.978    22967256.555    22967259.488    22967259.343   122643871.855 5
  95389686.760 3        36.000          29.000
  23240450.324    23240451.318                                   123884680.944 4
                        34.000
  22235422.874    22235422.266    22235423.050    22235425.088   118944465.967 7
  92512350.859 4        46.000          32.000
  19558754.428    19558753.150    19558755.703    19558756.601   104589434.291 7
  81347332.780 6        46.000          41.000
  21077517.893    21077518.125    21077518.215    21077517.799   112790055.446 8
  87725594.191 5        50.000          37.000
 16  1  1 10  0  0.0000000  0  9R04R05R06R13R14R15R19R20R21
  22016690.798    22016691.596    22016688.875    22016689.793   117898400.201 7
  91698715.204 4        45.000          33.000
  19335903.773    19335902.740    19335904.137    19335902.396   103361512.840 7
  80392283.625 5        47.000          39.000
  21265039.795    21265039.028    21265038.269    21265036.203   113474369.460 8
  88257830.836 3        50.000          29.000
  23306186.821    23306183.090    23306185.267    23306186.104   124453724.085 4
  96797349.605 3        34.000          28.000
  22388498.740    22388499.112    22388501.068                   119343314.773 5
  92822570.399 3        39.000          26.000
  23645218.952    23645216.627    23645221.808                   126352885.968 5
  98274471.521 2        39.000          23.000
  23757452.533    23757451.406    23757458.263    23757458.168   127086272.265 5
  98844857.814 3        35.000          26.000
  20161176.922    20161175.728    20161179.513    20161180.058   107810853.241 7
  83852879.218 6        46.000          40.000
  20287081.668    20287081.235    20287081.299    20287080.759   108560271.170 8
  84435761.931 5        52.000          39.000
 16  1  1 10 30  0.0000000  0  8R04R05R06R14R15R20R21R22
  23186052.223    23186052.411    23186055.584    23186053.249   124160263.612 6
  96569048.910 3        40.000          28.000
  19707944.296    19707943.103    19707945.591    19707944.230   105350283.268 7
  81939104.561 5        47.000          38.000
  20413995.476    20413994.987    20413993.881    20413991.338   108933042.141 8
  84725689.189 4        53.000          32.000
  21998946.990    21998947.471    21998947.887    21998949.335   117266793.287 6
  91207499.572 3        40.000          27.000
  22429892.962    22429892.253    22429895.136    22429896.992   119858579.990 6
  93223350.347 4        42.000          31.000
  21220688.979    21220688.151    21220690.550    21220692.130   113476524.578 6
  88259509.521 5        44.000          36.000
  20001053.094    20001053.159    20001054.126    20001053.248   107029674.146 8
  83245297.269 6        52.000          40.000
  22640692.475    22640691.178    22640690.032    22640690.400   120857562.160 6
  94000312.688 3        44.000          29.000
 16  1  1 11  0  0.0000000  0  7R05R06R14R15R20R21R22
  20338984.887    20338984.371    20338984.357    20338983.561   108723546.750 7
  84562752.923 5        46.000          36.000
  19806233.467    19806232.614    19806231.690    19806230.594   105689913.405 8
  82203256.538 4        53.000          34.000
  22153342.146    22153342.549    22153343.960    22153345.931   118089806.578 6
  91847621.437 3        40.000          27.000
  21543422.648    21543420.366    21543424.129    21543425.803   115121566.381 7
  89539010.639 4        46.000          34.000
  22599066.241    22599065.682    22599070.456    22599071.277   120847313.431 6
  93992340.771 4        40.000          32.000
  20279633.727    20279633.595    20279634.465    20279633.541   108520411.875 8
  84404759.303 5        52.000          39.000
  21619743.691    21619741.937    21619742.699    21619743.389   115407675.683 7
  89761512.745 4        47.000          34.000
 16  1  1 11 30  0.0000000  0  7R05R06R14R15R20R21R22
  21171083.097    21171081.686    21171084.200    21171084.043   113171588.582 6
  88022339.250 4        44.000          34.000
  19460992.593    19460991.529    19460990.963    19460989.880   103847641.810 8
  80770378.988 5        53.000          35.000
  22834484.088    22834484.208    22834487.338                   121720674.006 5
  94671629.539 2        38.000          24.000
  21141255.548    21141253.347    21141257.161    21141258.000   112972514.765 7
  87867527.567 5        46.000          35.000
  24131143.094    24131141.611    24131145.192                   129039984.780 4
 100364412.778 2        31.000          23.000
  21082632.014    21082632.101    21082632.685    21082632.451   112817413.873 8
  87746870.598 5        50.000          36.000
  21049238.245    21049236.937    21049237.725    21049237.654   112362280.558 7
  87392872.553 5        49.000          36.000
 16  1  1 12  0  0.0000000  0  8R05R06R07R15R16R21R22R23
  22155031.125    22155031.578    22155032.376    22155030.420   118431349.924 6
  92113263.443 4        41.000          30.000
  19389200.663    19389200.122    19389197.691    19389196.705   103464545.272 8
  80472415.396 5        54.000          35.000
  21295616.025    21295616.330    21295616.323    21295615.813   113997109.573 7
  88664419.757 5        47.000          37.000
  21302845.613    21302844.506    21302846.433    21302847.864   113836007.320 7
  88539134.499 4        46.000          34.000
  21355458.849    21355457.466    21355459.572    21355459.102   114077029.787 7
  88726589.185 4        47.000          34.000
  22282080.203    22282080.835    22282082.120    22282081.415   119235892.246 7
  92739017.333 4        46.000          31.000
  21022809.804    21022808.483    21022809.776    21022810.148   112221204.444 7
  87283146.670 5        49.000          36.000
  23292629.980    23292628.308                                   124599873.578 6
                        42.000
 16  1  1 12 30  0.0000000  0  9R05R06R07R09R15R16R21R22R23
  23251518.985    23251518.250    23251520.524    23251519.882   124292685.877 5
  96672078.152 3        37.000          26.000
  19595617.587    19595616.584    19595615.137    19595613.269   104566028.382 8
  81329124.821 4        53.000          34.000
  20457127.313    20457127.877    20457127.061    20457127.034   109508620.128 8
  85173373.835 5        50.000          39.000
  22790157.172    22790155.746                                   121698168.753 5
                        38.000
  22004082.756    22004081.656    22004085.766    22004085.068   117583210.732 6
  91453626.273 4        43.000          32.000
  20460903.483    20460902.122    20460902.999    20460902.453   109298492.985 8
  85009953.743 5        51.000          37.000
  23704113.944    23704113.405    23704113.230    23704114.211   126845453.931 6
  98657559.390 3        41.000          27.000
  21540879.718    21540878.763    21540879.300    21540879.078   114986689.924 7
  89434078.960 5        47.000          35.000
  22459550.696    22459548.699    22459554.339    22459554.188   120143466.931 7
  93444906.502 3        45.000          27.000
 16  1  1 13  0  0.0000000  0  8R06R07R08R09R15R16R22R23
  20078380.543    20078379.689    20078377.461    20078376.705   107142142.020 8
  83332768.926 4        52.000          33.000
  19809010.312    19809010.557    19809009.139    19809009.406   106039201.784 8
  82474938.514 6        51.000          41.000
  23342660.389    23342663.300    23342660.077    23342659.335   124998892.884 6
  97221356.137 3        42.000          28.000
  21359111.352    21359110.706    21359108.833                   114056495.449 6
  88710606.373 3        43.000          25.000
  23130903.799    23130900.332    23130905.413                   123604599.117 5
  96136927.916 3        37.000          29.000
  20066613.834    20066613.245    20066613.624    20066612.329   107192275.586 8
  83371786.108 5        51.000          38.000
  22506982.709    22506981.042    22506982.195    22506982.004   120143802.626 6
  93445164.034 4        44.000          31.000
  22121435.585    22121433.828    22121440.216    22121438.832   118334785.876 7
  92038155.513 3        46.000          28.000
 16  1  1 13 30  0.0000000  0  7R06R07R08R09R16R22R23
  20825970.127    20825969.069    20825969.219    20825969.206   111131425.943 8
  86435544.688 4        50.000          31.000
  19407113.213    19407113.757    19407111.805    19407112.166   103887816.744 7
  80801639.625 6        48.000          42.000
  22182893.232    22182893.766    22182894.361    22182893.519   118788411.784 6
  92390985.836 4        44.000          34.000
  20221473.495    20221472.697    20221471.523    20221471.709   107981588.604 7
  83985682.039 3        46.000          29.000
  20234327.449    20234326.488    20234326.119    20234325.690   108088172.416 8
  84068595.112 5        51.000          37.000
  23760615.165    23760614.120    23760614.241    23760614.120   126835752.321 6
  98650007.754 3        42.000          27.000
  22327780.261    22327779.106    22327782.787    22327783.676   119438588.349 7
  92896667.906 3        46.000          27.000
 16  1  1 14  0  0.0000000  0  8R06R07R08R09R10R16R23R24
  21813283.975    21813282.179    21813282.233    21813280.114   116399911.410 7
  90533253.808 3        46.000          27.000
  19309774.208    19309774.663    19309772.196    19309772.640   103366754.915 8
  80396369.561 6        51.000          42.000
  21102232.167    21102232.973    21102231.745    21102230.598   113001526.476 7
  87890077.225 5        48.000          36.000
  19528741.359    19528740.850    19528738.590    19528738.572   104282444.529 7
  81108571.412 4        47.000          30.000
  22324276.804    22324277.454    22324277.476    22324279.114   119000983.787 7
  92556323.796 3        46.000          27.000
  20925468.813    20925468.655    20925468.136    20925466.783   111780124.317 8
  86940113.210 5        50.000          35.000
  23029300.215    23029298.841                    23029304.820   123191240.934 6
                        43.000
  22973012.286    22973011.573    22973012.135    22973009.171   122847020.548 5
  95547680.502 3        38.000          25.000
 16  1  1 14 30  0.0000000  0  7R06R07R08R09R10R16R23
  22999004.950    22999003.788    22999002.019                   122727128.469 6
  95454420.045 3        44.000          25.000
  19563166.599    19563166.950    19563165.661    19563165.752   104723184.637 8
  81451370.623 6        50.000          42.000
  20180333.463    20180334.341    20180332.221    20180332.024   108064803.982 8
  84050405.221 6        51.000          40.000
  19371690.588    19371689.869    19371687.599    19371687.852   103443801.254 7
  80456294.159 4        47.000          31.000
  20966839.766    20966840.047    20966838.955    20966840.211   111765096.590 8
  86928416.331 4        51.000          31.000
  22021020.568    22021019.515    22021021.635    22021020.843   117632364.365 7
  91491855.158 4        45.000          32.000
  24093985.309    24093986.083                                   128886579.746 5
                        38.000
 16  1  1 15  0  0.0000000  0  8R01R07R08R09R10R11R16R24
  22922739.880    22922738.300    22922741.151    22922741.244   122535051.490 6
  95305148.060 3        42.000          26.000
  20184167.707    20184167.973    20184166.326    20184166.632   108047449.941 7
  84036909.701 6        49.000          40.000
  19516464.041    19516465.177    19516463.107    19516462.044   104509814.893 8
  81285414.173 6        52.000          42.000
  19749807.637    19749806.403    19749804.182    19749804.579   105462925.041 7
  82026723.882 3        48.000          29.000
  19928050.116    19928050.398    19928049.639    19928049.948   106227772.872 8
  82621610.666 4        53.000          34.000
  23875245.043    23875242.861                                   127582177.851 5
                        35.000
  23366889.413    23366888.602    23366888.488    23366889.627   124821759.221 5
  97083607.741 3        37.000          27.000
  23751624.966    23751624.399                                   127010619.336 5
                        36.000
 16  1  1 15 30  0.0000000  0  6R01R07R08R09R10R11
  21649467.523    21649465.766    21649468.491    21649467.207   115728685.206 7
  90011309.849 3        48.000          29.000
  21149147.636    21149148.111    21149147.524    21149146.521   113213059.670 7
  88054605.052 5        45.000          37.000
  19213398.615    19213399.512    19213397.467    19213396.715   102886913.905 8
  80023158.212 6        51.000          42.000
  20575916.169    20575914.738    20575913.545    20575916.444   109874300.959 7
  85457794.379 3        46.000          27.000
  19315913.740    19315913.838    19315913.361    19315913.573   102964744.566 8
  80083700.752 5        53.000          36.000
  22417884.585    22417883.382    22417884.367    22417886.008   119794494.930 6
  93173415.265 3        42.000          26.000
 16  1  1 16  0  0.0000000  0  7R01R07R08R09R10R11R18
  20558025.196    20558023.692    20558026.653    20558024.207   109894305.404 8
  85473460.472 4        51.000          33.000
  22394384.729    22394385.191    22394384.206    22394383.838   119878903.398 6
  93239148.674 4        42.000          33.000
  19349135.145    19349136.254    19349133.776    19349133.652   103613780.387 8
  80588499.145 6        51.000          42.000
  21713986.502    21713986.426    21713982.312                   115951533.077 6
  90184531.181 3        44.000          25.000
  19179290.858    19179290.938    19179291.181    19179291.305   102236472.556 8
  79517267.890 5        52.000          35.000
  21148636.289    21148634.007    21148636.331    21148636.932   113012032.587 7
  87898169.929 4        46.000          30.000
  23573029.702    23573028.443    23573027.752    23573026.162   125834434.649 4
  97871230.655 1        33.000           6.000
 16  1  1 16 30  0.0000000  0  8R01R02R08R09R10R11R18R19
  19784423.133    19784421.316    19784424.427    19784423.078   105758966.524 8
  82257086.927 5        52.000          35.000
  23749251.514                                                   126730562.854 5
                        37.000
  19947080.377    19947081.668    19947078.606    19947078.498   106815749.308 8
  83078919.598 6        52.000          40.000
  23022615.080    23022615.861                                   122939548.436 5
                        37.000
  19495149.043    19495148.828    19495148.037    19495149.282   103920175.836 8
  80826815.736 5        53.000          35.000
  20165298.662    20165296.742    20165297.978    20165297.708   107757380.234 8
  83811220.564 4        50.000          33.000
  23600401.132    23600399.215    23600398.649    23600400.364   125980544.864 6
  97984872.306 3        41.000          26.000
  23890784.737    23890781.271    23890781.515    23890783.345   127799591.534 5
  99399678.063 3        37.000          26.000
 16  1  1 17  0  0.0000000  0  7R01R02R08R10R11R12R19
  19456060.943    19456059.784    19456061.943    19456060.253   104003685.986 8
  80891869.201 5        52.000          36.000
  22367271.435    22367271.205    22367267.936    22367268.558   119356062.578 7
  92832486.180 4        46.000          31.000
  20962422.799    20962423.510    20962420.556    20962420.978   112252859.353 7
  87307782.624 5        49.000          37.000
  20182122.238    20182122.469    20182121.492    20182123.338   107582131.978 8
  83675004.301 4        52.000          32.000
  19535006.622    19535004.475    19535004.823    19535006.387   104389296.731 8
  81191601.302 5        51.000          35.000
  23393474.098    23393471.926    23393475.725    23393474.002   124963750.817 5
  97194032.144 3        38.000          26.000
  23256821.932    23256821.114    23256820.244    23256818.563   124408324.891 6
  96762027.631 3        41.000          29.000
 16  1  1 17 30  0.0000000  0  8R01R02R08R10R11R12R19R20
  19650489.888    19650488.544    19650490.883    19650489.054   105043017.204 8
  81700237.951 5        53.000          36.000
  21192103.067    21192101.671    21192100.651    21192100.949   113085147.895 7
  87955109.018 5        49.000          35.000
  22292934.948    22292935.754    22292933.240    22292933.682   119377688.777 7
  92849315.796 4        45.000          32.000
  21132096.704    21132096.983    21132094.680    21132096.099   112646029.646 7
  87613591.510 3        49.000          29.000
  19282439.073    19282436.662    19282437.428    19282438.460   103039654.474 8
  80141880.007 5        50.000          35.000
  22188526.878    22188525.571    22188528.425    22188526.628   118527158.706 6
  92187797.554 3        43.000          29.000
  23109614.368    23109614.512    23109611.382    23109612.098   123620865.690 6
  96149559.553 4        41.000          30.000
  23309262.726    23309261.080    23309262.491    23309263.260   124645084.500 5
  96946188.873 3        36.000          26.000
 16  1  1 18  0  0.0000000  0  9R01R02R08R10R11R12R19R20R21
  20361734.794    20361733.535    20361735.924    20361733.904   108845026.630 8
  84657355.930 4        52.000          33.000
  20378782.996    20378782.038    20378780.839    20378780.169   108745116.630 8
  84579529.492 5        52.000          38.000
  23804514.406    23804515.445    23804514.607    23804515.646   127472125.666 5
  99144987.284 3        37.000          28.000
  22240510.943    22240511.225    22240508.651    22240508.201   118554502.354 6
  92209070.232 3        44.000          26.000
  19388890.898    19388888.506    19388889.981    19388890.274   103608501.289 7
  80584316.656 5        49.000          36.000
  21159444.651    21159443.496    21159444.867    21159442.466   113029991.553 7
  87912224.568 4        46.000          34.000
  23486011.256    23486012.189    23486008.695    23486009.880   125634334.895 6
  97715591.241 3        40.000          27.000
  22540502.283    22540501.993    22540501.538    22540503.080   120534184.683 5
  93748823.639 4        39.000          32.000
  23738732.876    23738733.001    23738730.756                   127030749.756 5
  98801694.205 1        39.000           8.000
 16  1  1 18 30  0.0000000  0  8R01R02R03R10R11R12R20R21
  21498394.104    21498393.596    21498395.050    21498395.333   114921116.786 7
  89383203.030 3        47.000          29.000
  20060028.187    20060027.851    20060025.165    20060025.885   107044182.349 8
  83256580.657 5        52.000          39.000
  22908741.112    22908741.870    22908738.156    22908739.006   122632297.366 5
  95380667.711 4        39.000          30.000
  23423654.530    23423655.492                                   124861324.266 6
                        40.000
  19804255.436    19804253.649    19804254.211    19804253.931   105828082.887 8
  82310657.988 5        50.000          35.000
  20347759.256    20347757.572    20347758.839    20347758.147   108694117.451 7
  84539878.658 5        48.000          37.000
  22249264.522    22249263.461    22249266.555    22249265.388   118976809.801 6
  92537532.395 4        40.000          32.000
  22528445.810    22528445.497    22528444.101    22528442.943   120554271.395 7
  93764435.501 4        45.000          32.000
 16  1  1 19  0  0.0000000  0  8R01R02R03R11R12R13R20R21
  22913247.159    22913244.645    22913248.384    22913243.720   122484318.027 6
  95265691.814 3        40.000          26.000
  20299782.804    20299781.918    20299780.028    20299780.675   108323555.713 8
  84251648.572 5        52.000          38.000
  21852190.690    21852190.711    21852190.951    21852189.619   116976504.503 6
  90981718.054 5        43.000          35.000
  20465701.462    20465699.728    20465701.279    20465701.184   109362650.106 7
  85059765.835 4        49.000          33.000
  19781161.668    19781160.196    19781161.081    19781159.721   105667454.250 7
  82185807.624 5        48.000          38.000
  23423393.343    23423391.026                                   125079619.073 5
                        37.000
  22500224.562    22500222.081    22500224.294    22500226.379   120318801.683 6
  93581303.946 4        40.000          31.000
  21630119.655    21630120.237    21630119.500    21630118.237   115747154.064 7
  90025567.400 5        47.000          35.000
 16  1  1 19 30  0.0000000  0  8R02R03R11R12R13R20R21R22
  21063519.382    21063518.723    21063517.434    21063516.847   112398998.188 8
  87421436.545 5        50.000          36.000
  21228721.355    21228721.504    21228718.736    21228719.785   113639021.268 6
  88385897.892 5        43.000          37.000
  21313729.970    21313727.031    21313728.929    21313729.241   113894256.929 7
  88584348.791 4        46.000          30.000
  19476318.682    19476316.392    19476318.222    19476317.066   104039037.801 7
  80919261.575 5        48.000          39.000
  22325403.220    22325400.115    22325400.187    22325400.599   119216418.928 6
  92723873.845 4        40.000          30.000
  23259385.408    23259383.740    23259385.330    23259385.576   124378373.326 5
  96738748.549 3        37.000          28.000
  21198489.454    21198490.275    21198488.445    21198487.115   113437414.923 7
  88229104.236 5        49.000          37.000
  22112029.548    22112027.972    22112028.584    22112028.427   118035524.528 7
  91805411.492 4        47.000          33.000
 16  1  1 20  0  0.0000000  0  8R02R03R04R11R12R13R21R22
  22228367.760    22228367.838    22228365.696    22228366.025   118614843.769 7
  92255981.969 4        46.000          32.000
  21138588.156    21138588.395    21138585.910    21138585.220   113156528.055 7
  88010625.316 5        47.000          37.000
  23275482.773    23275483.779    23275479.747    23275478.484   124639156.698 5
  96941556.553 3        37.000          27.000
  22300223.339    22300221.281    22300221.639    22300220.727   119165772.971 6
  92684415.992 3        42.000          28.000
  19442491.234    19442489.883    19442490.638    19442490.208   103858339.679 7
  80778718.589 5        47.000          38.000
  21332591.142    21332588.559    21332589.472    21332590.020   113914859.988 6
  88600439.441 5        44.000          35.000
  21317569.224    21317567.870    21317567.723    21317567.370   114074637.985 7
  88724722.326 5        47.000          35.000
  20969397.379    20969396.189    20969395.397    20969395.661   111936081.458 8
  87061401.415 5        50.000          36.000
 16  1  1 20 30  0.0000000  0  9R02R03R04R11R12R13R21R22R23
  23623340.143    23623336.891    23623339.917    23623338.950   126058690.992 5
  98045639.616 3        39.000          26.000
  21592486.674    21592487.138    21592484.875    21592484.491   115586284.601 6
  89900435.652 5        44.000          35.000
  22470929.967    22470930.876    22470928.498    22470928.936   120330817.187 7
  93590625.950 4        45.000          31.000
  23388600.794    23388596.787                    23388601.377   124981730.695 5
                        39.000
  19683754.170    19683752.983    19683753.621    19683752.237   105147120.608 7
  81781103.705 5        48.000          38.000
  20481326.497    20481324.913    20481324.731    20481325.391   109369154.467 7
  85064890.858 5        46.000          38.000
  21971903.699    21971904.496    21971902.304    21971898.779   117576109.716 7
  91448089.252 4        46.000          34.000
  20253160.458    20253158.685    20253157.077    20253157.154   108112760.557 8
  84087708.143 5        52.000          38.000
  22777798.056                                                   121845861.744 6
                        43.000
 16  1  1 21  0  0.0000000  0  7R03R04R12R13R21R22R23
  22503535.262    22503536.529    22503533.639    22503532.084   120463194.087 6
  93693586.193 4        41.000          32.000
  22156883.257    22156884.689    22156880.829    22156880.495   118649114.125 7
  92282634.723 4        45.000          33.000
  20198246.268    20198244.170    20198246.004    20198243.896   107895444.191 7
  83918688.529 5        47.000          36.000
  19818455.966    19818454.138    19818454.492    19818454.280   105829460.210 7
  82311795.356 5        47.000          39.000
  23056324.248    23056324.246    23056323.118    23056322.743   123379068.406 6
  95961501.536 4        40.000          30.000
  20082133.616    20082132.559    20082131.660    20082131.214   107199811.299 8
  83377636.783 5        52.000          38.000
  21366104.524    21366104.726    21366106.556    21366106.232   114294259.775 7
  88895534.234 3        48.000          29.000
 16  1  1 21 30  0.0000000  0  7R03R04R12R13R14R22R23
  23716630.408    23716630.809    23716629.223    23716627.233   126956978.549 5
  98744305.915 3        38.000          28.000
  22377546.151    22377547.766    22377543.666    22377544.479   119830754.029 7
  93201687.868 4        45.000          32.000
  20974646.794    20974644.688    20974646.167    20974644.882   112042833.161 7
  87144434.896 4        45.000          34.000
  19401390.804    19401389.136    19401388.638    19401389.362   103602356.425 7
  80579603.509 6        47.000          40.000
  22381651.564    22381652.302    22381650.554    22381650.514   119306795.220 5
  92794173.934 3        38.000          26.000
  20479916.853    20479915.283    20479914.348    20479913.891   109323203.292 8
  85029163.984 5        51.000          37.000
  20252428.295    20252427.443    20252430.003    20252428.350   108336841.482 8
  84261987.445 4        53.000          33.000
 16  1  1 22  0  0.0000000  0  8R04R05R12R13R14R22R23R24
  23080805.111    23080806.904    23080803.148    23080802.594   123596669.306 6
  96130732.745 4        43.000          30.000
  23112284.800    23112284.358    23112283.016    23112282.296   123548405.935 5
  96093210.604 3        36.000          26.000
  21987763.846    21987762.475    21987764.856    21987763.507   117454720.739 6
  91353679.820 4        42.000          30.000
  19290653.323    19290650.795    19290650.684    19290651.367   103011021.651 7
  80119676.431 6        46.000          40.000
  21247435.954    21247437.398    21247435.289    21247437.567   113260791.646 6
  88091726.870 3        42.000          29.000
  21369129.363    21369127.268    21369126.595    21369125.558   114069882.412 7
  88721025.564 5        48.000          35.000
  19584497.817    19584497.056    19584500.071    19584498.737   104763867.117 8
  81483008.353 4        54.000          34.000
  22073398.323    22073397.993    22073396.661    22073396.609   118036398.720 6
  91806080.871 3        40.000          28.000
 16  1  1 22 30  0.0000000  0  9R04R05R12R13R14R15R22R23R24
  24135050.270    24135050.497                                   129242101.685 5
                        37.000
  23236874.265    23236872.715    23236873.088    23236872.182   124214413.208 5
  96611216.200 3        38.000          27.000
  23195663.137    23195661.959    23195662.976    23195660.387   123907087.785 5
  96372185.670 3        39.000          28.000
  19534679.199    19534678.101    19534677.736    19534677.433   104314107.969 7
  81133187.837 6        47.000          40.000
  20250435.872    20250436.516    20250435.140    20250435.073   107946220.792 7
  83958171.836 4        45.000          32.000
  23933963.858    23933961.880    23933963.642                   127895844.551 5
  99474547.397 3        36.000          25.000
  22606582.245    22606581.404    22606579.356    22606579.022   120675486.320 7
  93858717.492 4        45.000          32.000
  19448670.549    19448669.669    19448672.476    19448670.823   104037285.330 8
  80917889.398 5        53.000          35.000
  20759116.455    20759116.155    20759113.903    20759115.385   111008345.933 7
  86339818.563 4        45.000          32.000
 16  1  1 23  0  0.0000000  0  7R05R06R13R14R15R23R24
  23841451.955    23841449.506    23841450.226    23841448.748   127446221.357 5
  99124844.693 3        35.000          25.000
  23648645.380    23648646.054                                   126193694.144 5
                        38.000
  20151928.654    20151927.217    20151927.289    20151927.524   107610186.058 7
  83696803.612 5        47.000          38.000
  19493669.482    19493670.105    19493668.168    19493669.199   103912227.709 7
  80820621.610 4        46.000          34.000
  22617006.639    22617005.155    22617006.265                   120858426.640 6
  94001000.315 4        42.000          30.000
  19841132.928    19841131.509    19841134.445    19841132.843   106136694.440 8
  82550763.222 4        53.000          34.000
  19789272.019    19789270.421    19789269.622    19789269.825   105822153.084 7
  82306113.903 5        47.000          35.000
 16  1  1 23 30  0.0000000  0  6R06R13R14R15R23R24
  23638861.402    23638861.961                                   126141491.127 4
                        34.000
  21119114.794    21119113.207    21119113.354    21119113.527   112774900.804 6
  87713802.847 5        43.000          35.000
  19089290.761    19089291.725    19089290.698    19089290.654   101756663.069 7
  79144071.221 5        45.000          35.000
  21376910.479    21376909.632    21376911.286    21376910.922   114231724.904 7
  88846899.017 4        46.000          34.000
  20673812.958    20673812.388    20673813.061    20673811.640   110590970.218 8
  86015199.955 4        51.000          32.000
  19265737.699    19265736.577    19265734.779    19265735.763   103022582.445 7
  80128670.466 5        46.000          36.000
