     2.00           OBSERVATION DATA    G (GPS)             RINEX VERSION / TYPE
teqc  1999Jul19     CNRS_UMRGA          20020111 11:04:23UTCPGM / RUN BY / DATE
Solaris 2.3|S-Sparc|cc SC3.0|=+|*Sparc                      COMMENT
BIT 2 OF LLI FLAGS DATA COLLECTED UNDER A/S CONDITION       COMMENT
SJDV                                                        MARKER NAME
10090M001                                                   MARKER NUMBER
___                 REGAL                                   OBSERVER / AGENCY
845                 ASHTECH Z-XII3      CD00                REC # / TYPE / VERS
317                 ASH700936A_M    NONE                    ANT # / TYPE
  4433469.9683   362672.6919  4556211.6229                  APPROX POSITION XYZ
        0.0000        0.0000        0.0000                  ANTENNA: DELTA H/E/N
     1     1                                                WAVELENGTH FACT L1/2
     5    L1    L2    C1    P1    P2                        # / TYPES OF OBSERV
    30.0000                                                 INTERVAL
Forced Modulo Decimation to 30 seconds                      COMMENT
 SNR is mapped to RINEX snr flag value [1-9]                COMMENT
  L1: 1 -> 1;  90 -> 5; 210 -> 9                            COMMENT
  L2: 1 -> 1; 150 -> 5; 250 -> 9                            COMMENT
  2002     1    10     0     0   30.0000000     GPS         TIME OF FIRST OBS
                                                            END OF HEADER
 02  1 10  0  0 30.0000000  0  7G20G13G11G 1G 4G25G 7
 -27413312.03249 -20904548.99148  20640157.479    20640157.077    20640159.876
 -18699774.20449 -14538445.58247  21951675.756    21951675.901    21951678.984
 -12431665.95749  -9648174.39246  22796475.491    22796475.069    22796478.618
 -25427470.32149 -19721530.09048  20424600.119    20424599.794    20424603.664
 -16385593.22649 -12750696.91946  22522326.741    22522326.858    22522330.151
 -13862050.65349 -10787781.93846  23844689.647    23844689.565    23844692.901
 -17607129.24449 -12904512.99046  22255797.683    22255797.572    22255801.537
 02  1 10  0  1  0.0000000  0  7G20G13G11G 1G 4G25G 7
 -27378263.29749 -20877238.29848  20646827.033    20646826.439    20646829.566
 -18788169.98049 -14607325.38947  21934854.627    21934854.396    21934857.487
 -12334895.64649  -9572768.98046  22814890.250    22814890.240    22814893.471
 -25453364.58749 -19741707.42648  20419672.561    20419672.165    20419676.065
 -16470801.92649 -12817093.29946  22506112.115    22506112.343    22506115.419
 -13826023.62049 -10759708.91646  23851545.349    23851545.099    23851548.720
 -17571854.03349 -12877025.82446  22262510.336    22262510.045    22262514.145
 02  1 10  0  1 30.0000000  0  7G20G13G11G 1G 4G25G 7
 -27342913.74849 -20849693.19448  20653553.803    20653553.303    20653556.442
 -18876218.58449 -14675934.67147  21918099.580    21918099.835    21918102.617
 -12237884.95149  -9497176.23246  22833350.696    22833350.800    22833353.000
 -25478740.89949 -19761481.16548  20414843.619    20414843.258    20414847.136
 -16555774.57349 -12883305.74546  22489942.367    22489942.857    22489945.969
 -13789501.36749 -10731250.00046  23858495.410    23858496.027    23858498.682
 -17536074.73849 -12849145.87646  22269318.940    22269318.781    22269323.109
 02  1 10  0  2  0.0000000  0  7G20G13G11G 1G 4G25G 7
 -27307262.00249 -20821912.62148  20660338.185    20660337.726    20660340.697
 -18963916.17149 -14744270.43147  21901411.279    21901411.229    21901413.995
 -12140633.62249  -9421395.99046  22851857.004    22851856.359    22851859.573
 -25503597.15549 -19780849.67048  20410113.622    20410113.223    20410116.925
 -16640506.87249 -12949330.91046  22473818.483    22473818.999    22473821.482
 -13752483.00949 -10702404.51846  23865539.796    23865540.070    23865541.988
 -17499790.98349 -12820872.83546  22276223.534    22276223.331    22276227.741
 02  1 10  0  2 30.0000000  0  7G20G13G11G 1G 4G25G 7
 -27271310.32549 -20793898.33148  20667179.555    20667179.020    20667182.069
 -19051263.00949 -14812332.87447  21884789.623    21884789.805    21884792.592
 -12043145.19649  -9345430.99646  22870408.379    22870407.726    22870411.448
 -25527935.20249 -19799814.37148  20405482.192    20405481.789    20405485.710
 -16724998.62149 -13015168.63046  22457740.224    22457740.470    22457743.403
 -13714971.39849 -10673174.68145  23872677.955    23872678.309    23872681.729
 -17463006.27049 -12792209.44546  22283223.439    22283222.856    22283227.256
 02  1 10  0  3  0.0000000  0  7G20G13G11G 1G 4G25G 7
 -27235059.46749 -20765650.92548  20674077.910    20674077.394    20674080.481
 -19138257.52149 -14880120.78647  21868235.073    21868234.996    21868237.973
 -11945421.66749  -9269282.81446  22889004.599    22889005.201    22889007.903
 -25551755.21849 -19818375.41648  20400949.405    20400948.957    20400952.766
 -16809247.76749 -13080817.32146  22441708.197    22441708.169    22441710.866
 -13676967.85049 -10643561.51945  23879909.686    23879909.752    23879912.729
 -17425722.55049 -12763157.20946  22290318.283    22290318.374    22290322.523
 02  1 10  0  3 30.0000000  0  7G20G13G11G 1G 4G25G 7
 -27198507.86049 -20737169.14948  20681033.490    20681032.819    20681035.863
 -19224895.91649 -14947631.20447  21851748.326    21851748.449    21851751.371
 -11847462.66949  -9192951.13546  22907645.538    22907645.307    22907648.287
 -25575055.11749 -19836531.17548  20396515.593    20396515.236    20396519.066
 -16893250.05349 -13146273.64646  22425723.218    22425722.965    22425726.328
 -13638471.22149 -10613564.14545  23887235.298    23887235.841    23887239.502
 -17387939.31649 -12733715.74346  22297508.197    22297507.187    22297512.853
 02  1 10  0  4  0.0000000  0  7G20G13G11G 1G 4G25G 7
 -27161658.69249 -20708455.51748  20688045.667    20688044.964    20688048.035
 -19311178.92349 -15014864.68947  21835329.170    21835329.626    21835332.221
 -11749272.20649  -9116439.09646  22926330.524    22926329.812    22926334.131
 -25597837.22449 -19854283.45648  20392180.295    20392179.818    20392183.829
 -16977005.92349 -13211537.95046  22409784.902    22409785.219    22409787.742
 -13599485.13449 -10583185.36345  23894654.190    23894653.995    23894657.916
 -17349660.83449 -12703888.39146  22304792.298    22304791.994    22304796.314
 02  1 10  0  4 30.0000000  0  7G20G13G11G 1G 4G25G 7
 -27124511.51749 -20679509.67848  20695114.511    20695113.921    20695116.822
 -19397104.42849 -15081819.60947  21818978.088    21818978.525    21818981.435
 -11650851.27949  -9039747.50546  22945059.417    22945059.976    22945061.852
 -25620100.98449 -19871631.83948  20387943.638    20387943.331    20387946.968
 -17060512.28849 -13276607.84646  22393894.134    22393894.300    22393897.098
 -13560010.18149 -10552425.65045  23902166.111    23902165.775    23902169.361
 -17310888.09249 -12673675.88146  22312170.611    22312170.036    22312174.187
 02  1 10  0  5  0.0000000  0  7G20G13G11G 1G 4G25G 7
 -27087066.57449 -20650331.80948  20702240.053    20702239.448    20702242.597
 -19482670.38049 -15148494.34847  21802695.473    21802695.508    21802698.451
 -11552201.25949  -8962877.36246  22963832.121    22963832.170    22963834.327
 -25641846.10849 -19888576.08248  20383805.707    20383805.445    20383809.068
 -17143766.69849 -13341481.40246  22378051.360    22378050.988    22378054.332
 -13520047.17949 -10521285.64145  23909770.799    23909770.490    23909773.353
 -17271622.49349 -12643079.32246  22319642.609    22319641.883    22319646.929
 02  1 10  0  5 30.0000000  0  7G20G13G11G 1G 4G25G 7
 -27049325.01849 -20620922.81948  20709422.069    20709421.306    20709424.351
 -19567875.76949 -15214888.13547  21786481.381    21786481.293    21786484.514
 -11453324.56949  -8885830.60046  22982647.746    22982646.935    22982650.297
 -25663073.13949 -19905116.62148  20379766.349    20379765.892    20379769.565
 -17226767.54449 -13406157.39446  22362256.736    22362256.782    22362259.970
 -13479597.71249 -10489766.56045  23917468.239    23917468.051    23917471.337
 -17231866.45549 -12612100.63246  22327207.942    22327207.656    22327212.943
 02  1 10  0  6  0.0000000  0  7G20G13G11G 1G 4G25G 7
 -27011286.06149 -20591282.08448  20716660.584    20716660.125    20716662.925
 -19652717.75749 -15280998.74947  21770336.457    21770336.270    21770339.413
 -11354221.57349  -8808607.51046  23001506.287    23001506.818    23001509.744
 -25683780.85049 -19921252.49648  20375825.811    20375825.300    20375829.086
 -17309511.30349 -13470633.04946  22346511.188    22346510.932    22346514.493
 -13438661.83949 -10457868.47045  23925257.980    23925257.439    23925260.223
 -17191620.40149 -12580740.10446  22334866.536    22334866.604    22334870.108
 02  1 10  0  6 30.0000000  0  7G20G13G11G 1G 4G25G 7
 -26972952.11449 -20561411.48448  20723955.315    20723954.705    20723957.609
 -19737196.46549 -15346826.28847  21754260.630    21754260.829    21754263.890
 -11254895.82349  -8731210.81746  23020407.486    23020407.234    23020409.938
 -25703971.16549 -19936985.20148  20371983.679    20371983.369    20371987.128
 -17391997.92849 -13534908.33246  22330814.457    22330814.159    22330817.591
 -13397242.50749 -10425593.65845  23933139.836    23933139.103    23933142.264
 -17150888.03549 -12549000.60046  22342617.703    22342618.037    22342621.015
 02  1 10  0  7  0.0000000  0  7G20G13G11G 1G 4G25G 7
 -26934322.41349 -20531310.43248  20731306.314    20731305.826    20731308.552
 -19821309.02549 -15412368.52347  21738254.577    21738254.100    21738257.454
 -11155347.74349  -8653640.90646  23039350.799    23039350.849    23039353.546
 -25723642.94949 -19952313.85848  20368240.276    20368239.651    20368243.475
 -17474223.59949 -13598980.28546  22315167.332    22315167.151    22315170.443
 -13355339.61949 -10392942.05845  23941113.578    23941113.882    23941115.992
 -17109669.70349 -12516882.44546  22350461.237    22350460.668    22350465.273
 02  1 10  0  7 30.0000000  0  7G20G13G11G 1G 4G25G 7
 -26895397.22549 -20500979.12648  20738713.525    20738712.948    20738715.849
 -19905053.62749 -15477624.03247  21722318.511    21722318.452    21722321.554
 -11055578.81549  -8575898.90646  23058336.191    23058336.586    23058339.387
 -25742796.13349 -19967238.41448  20364595.489    20364595.104    20364598.870
 -17556186.12349 -13662847.18646  22299570.402    22299570.479    22299574.075
 -13312954.19449 -10359914.45145  23949179.263    23949178.569    23949181.951
 -17067967.23949 -12484387.05646  22358397.084    22358396.714    22358402.007
 02  1 10  0  8  0.0000000  0  7G20G13G11G 1G 4G25G 7
 -26856177.23849 -20470418.09848  20746176.851    20746176.221    20746179.131
 -19988428.81949 -15542591.69447  21706452.663    21706452.685    21706455.744
 -10955591.29549  -8497986.55846  23077363.246    23077363.364    23077366.235
 -25761431.22349 -19981759.26148  20361049.399    20361048.889    20361052.822
 -17637883.52649 -13726507.49146  22284023.835    22284023.542    22284027.462
 -13270087.95949 -10326512.17745  23957336.483    23957336.761    23957339.762
 -17025782.91549 -12451516.18146  22366424.488    22366423.717    22366427.956
 02  1 10  0  8 30.0000000  0  7G20G13G11G 1G 4G25G 7
 -26816663.51249 -20439628.18848  20753696.098    20753695.496    20753698.466
 -20071433.59849 -15607270.72347  21690657.407    21690657.340    21690660.270
 -10855386.90649  -8419905.22546  23096431.498    23096431.573    23096434.360
 -25779548.61249 -19995876.70148  20357601.721    20357601.456    20357604.972
 -17719313.99349 -13789959.80346  22268528.117    22268528.259    22268531.332
 -13226742.42949 -10292736.43245  23965584.928    23965585.191    23965587.587
 -16983118.59149 -12418271.27846  22374543.134    22374542.606    22374547.227
 02  1 10  0  9  0.0000000  0  7G20G13G11G 1G 4G25G 7
 -26776855.79949 -20408609.19848  20761271.196    20761270.681    20761273.664
 -20154065.93349 -15671659.53847  21674932.944    21674932.956    21674935.786
 -10754967.13049  -8341656.06046  23115540.800    23115541.274    23115543.668
 -25797147.93849 -20009590.45648  20354252.688    20354252.204    20354256.120
 -17800474.58049 -13853201.81146  22253083.802    22253084.330    22253087.238
 -13182918.30049 -10258587.76245  23973924.271    23973924.248    23973927.281
 -16939975.85749 -12384653.57646  22382753.008    22382752.903    22382757.566
 02  1 10  0  9 30.0000000  0  7G20G13G11G 1G 4G25G 7
 -26736755.61649 -20377362.31148  20768902.050    20768901.419    20768904.437
 -20236324.97549 -15735757.47747  21659279.606    21659279.713    21659282.667
 -10654334.24849  -8263240.85046  23134690.603    23134690.127    23134693.243
 -25814230.10249 -20022901.21848  20351002.045    20351001.705    20351005.409
 -17881363.93149 -13916232.46746  22237691.114    22237690.917    22237694.143
 -13138617.65549 -10224067.78345  23982354.354    23982354.082    23982358.062
 -16896357.34849 -12350665.17946  22391053.322    22391052.867    22391057.651
 02  1 10  0 10  0.0000000  0  7G20G13G11G 1G 4G25G 7
 -26696362.39949 -20345887.08248  20776588.595    20776587.977    20776591.095
 -20318207.91349 -15799562.33647  21643697.842    21643697.760    21643700.925
 -10553489.07849  -8184660.19646  23153880.884    23153880.172    23153883.139
 -25830794.23449 -20035808.32148  20347849.996    20347849.747    20347853.151
 -17961978.83849 -13979049.26946  22222350.606    22222350.387    22222353.384
 -13093840.67449 -10189176.63245  23990875.063    23990875.532    23990877.727
 -16852263.86449 -12316306.65646  22399443.933    22399443.668    22399448.013
 02  1 10  0 10 30.0000000  0  7G20G13G11G 1G 4G25G 7
 -26655677.92849 -20314184.91348  20784330.603    20784330.058    20784333.174
 -20399714.83949 -15863074.20947  21628187.550    21628187.967    21628190.113
 -10452434.84449  -8105916.63846  23173110.978    23173111.199    23173113.288
 -25846842.02649 -20048313.08748  20344796.199    20344795.731    20344799.450
 -18042318.61349 -14041651.69446  22207062.507    22207062.920    22207065.575
 -13048590.06349 -10153916.40745  23999485.963    23999486.082    23999488.550
 -16807698.84049 -12281580.67046  22407924.575    22407924.557    22407927.943
 02  1 10  0 11  0.0000000  0  7G20G13G11G 1G 4G25G 7
 -26614701.63849 -20282255.34248  20792128.126    20792127.480    20792130.700
 -20480843.14549 -15926291.05147  21612749.289    21612749.285    21612752.228
 -10351172.13649  -8027010.64546  23192380.529    23192379.340    23192382.978
 -25862372.58749 -20060414.80848  20341840.810    20341840.467    20341844.123
 -18122379.76549 -14104036.99046  22191827.381    22191827.288    22191830.168
 -13002866.22549 -10118287.43645  24008186.803    24008186.568    24008190.561
 -16762662.96549 -12246487.80746  22416494.608    22416493.315    22416499.773
 02  1 10  0 11 30.0000000  0  7G20G13G11G 1G 4G25G 7
 -26573435.19949 -20250099.68548  20799980.840    20799980.423    20799983.412
 -20561592.02949 -15989212.23947  21597383.225    21597383.363    21597386.176
 -10249703.90649  -7947944.51546  23211689.091    23211688.822    23211691.649
 -25877387.32249 -20072114.59348  20338983.632    20338983.085    20338987.080
 -18202161.04149 -14166204.21646  22176645.496    22176645.378    22176648.043
 -12956671.69949 -10082291.71145  24016977.356    24016977.772    24016981.071
 -16717159.51749 -12211030.63946  22425153.519    22425153.299    22425158.330
 02  1 10  0 12  0.0000000  0  7G20G13G11G 1G 4G25G 7
 -26531877.16949 -20217716.80548  20807889.094    20807888.289    20807891.401
 -20641958.64649 -16051835.54847  21582089.986    21582090.020    21582092.949
 -10148030.01349  -7868718.09646  23231037.042    23231037.667    23231040.202
 -25891884.68949 -20083411.23248  20336224.874    20336224.455    20336228.108
 -18281658.43849 -14228150.23546  22161517.672    22161517.461    22161520.375
 -12910005.77849 -10045928.66145  24025857.548    24025858.045    24025859.822
 -16671188.47449 -12175209.04546  22433901.746    22433901.783    22433905.982
 02  1 10  0 12 30.0000000  0  7G20G13G11G 1G 4G25G 7
 -26490029.36149 -20185108.13448  20815852.494    20815851.616    20815854.940
 -20721942.56249 -16114160.65447  21566869.525    21566869.407    21566872.253
 -10046153.42649  -7789333.75746  23250423.657    23250423.837    23250426.080
 -25905866.25949 -20094305.96248  20333564.282    20333563.527    20333567.425
 -18360871.27049 -14289874.51446  22146444.024    22146443.926    22146447.203
 -12862871.08049 -10009200.31245  24034827.243    24034828.285    24034830.085
 -16624753.33349 -12139025.82946  22442738.049    22442737.086    22442742.526
 02  1 10  0 13  0.0000000  0  7G20G13G11G 1G 4G25G 7
 -26447892.86449 -20152274.50648  20823870.804    20823870.195    20823873.420
 -20801542.93349 -16176186.89147  21551722.082    21551721.883    21551725.005
  -9944076.63149  -7709793.41946  23269848.147    23269848.889    23269850.700
 -25919332.84749 -20104799.39448  20331001.584    20331001.231    20331004.974
 -18439797.64549 -14351375.57446  22131424.654    22131425.013    22131427.908
 -12815269.78349  -9972108.38845  24043885.489    24043886.064    24043888.633
 -16577856.50249 -12102482.90246  22451662.055    22451662.058    22451666.977
 02  1 10  0 13 30.0000000  0  7G20G13G11G 1G 4G25G 7
 -26405468.14149 -20119216.28548  20831943.996    20831943.516    20831946.472
 -20880758.09749 -16237912.96347  21536647.930    21536648.049    21536650.784
  -9841801.11849  -7630098.20846  23289310.563    23289310.606    23289313.138
 -25932284.53349 -20114891.60648  20328536.948    20328536.487    20328540.352
 -18518435.12349 -14412651.51946  22116460.325    22116460.903    22116463.302
 -12767203.12749  -9934653.84545  24053032.454    24053032.342    24053035.460
 -16530499.81749 -12065581.60946  22460673.939    22460673.609    22460678.526
 02  1 10  0 14  0.0000000  0  7G20G13G11G 1G 4G25G 7
 -26362754.66349 -20085933.05948  20840072.075    20840071.489    20840074.522
 -20959585.85849 -16299337.16247  21521647.470    21521647.753    21521650.522
  -9739327.76449  -7550248.84246  23308810.604    23308810.276    23308813.612
 -25944720.87649 -20124582.25248  20326170.421    20326170.195    20326173.782
 -18596780.60949 -14473699.94146  22101551.565    22101551.834    22101555.051
 -12718671.45449  -9896836.95645  24062267.670    24062267.599    24062270.325
 -16482684.51449 -12028322.95046  22469772.953    22469771.411    22469776.028
 02  1 10  0 14 30.0000000  0  7G20G13G11G 1G 4G25G 7
 -26319752.94249 -20052425.23348  20848255.021    20848254.594    20848257.533
 -21038024.42349 -16360458.09047  21506721.049    21506720.787    21506723.775
  -9636658.26149  -7470246.63746  23328347.970    23328348.051    23328350.092
 -25956642.16049 -20133871.55948  20323901.899    20323901.396    20323905.241
 -18674831.92649 -14534519.13546  22086698.787    22086699.126    22086702.072
 -12669676.24649  -9858658.85545  24071591.185    24071590.575    24071593.694
 -16434412.50749 -11990708.42346  22478958.703    22478959.180    22478963.488
 02  1 10  0 15  0.0000000  0  7G20G13G11G 1G 4G25G 7
 -26276464.32749 -20018693.85348  20856492.628    20856492.111    20856495.109
 -21116073.64249 -16421275.63947  21491868.817    21491869.039    21491871.526
  -9533795.50749  -7390093.85746  23347922.274    23347921.830    23347925.134
 -25968049.71549 -20142760.55948  20321731.065    20321730.599    20321734.468
 -18752587.77249 -14595108.09947  22071902.328    22071902.510    22071905.658
 -12620220.13449  -9820121.63645  24081002.323    24081002.469    24081005.072
 -16385687.27049 -11952740.74446  22488230.984    22488230.982    22488236.158
 02  1 10  0 15 30.0000000  0  7G20G13G11G 1G 4G25G 7
 -26232889.71149 -19984739.61548  20864784.659    20864784.011    20864786.936
 -21193732.12149 -16481788.71647  21477090.845    21477091.189    21477093.775
  -9430741.35949  -7309791.91846  23367532.902    23367532.394    23367534.591
 -25978944.13549 -20151249.71548  20319657.933    20319657.474    20319661.244
 -18830046.31649 -14655465.40147  22057162.482    22057163.094    22057165.513
 -12570304.65549  -9781226.45145  24090500.982    24090500.104    24090502.308
 -16336510.74949 -11914421.41346  22497588.960    22497587.684    22497592.582
 02  1 10  0 16  0.0000000  0  7G20G13G11G 1G 4G25G 7
 -26189027.82449 -19950561.52848  20873131.289    20873130.832    20873133.703
 -21270996.62549 -16541994.80247  21462387.900    21462387.838    21462390.560
  -9327495.96849  -7229340.97246  23387179.781    23387179.173    23387182.913
 -25989324.04749 -20159337.95748  20317682.705    20317682.231    20317685.985
 -18907203.20049 -14715587.64147  22042480.081    22042480.518    22042482.992
 -12519929.23649  -9741972.86145  24100087.039    24100086.028    24100089.442
 -16286883.39249 -11875750.77246  22507032.483    22507031.926    22507036.360
 02  1 10  0 16 30.0000000  0  7G20G13G11G 1G 4G25G 7
 -26144880.36549 -19916160.91148  20881532.302    20881531.646    20881534.555
 -21347866.79749 -16601893.60047  21447759.952    21447760.005    21447762.584
  -9224062.27649  -7148743.29646  23406862.583    23406862.676    23406864.818
 -25999191.12149 -20167026.57548  20315805.068    20315804.661    20315808.479
 -18984057.68349 -14775474.24847  22027855.135    22027855.023    22027858.801
 -12469096.86949  -9702363.20845  24109760.113    24109760.240    24109761.718
 -16236808.50249 -11836731.37246  22516561.632    22516561.489    22516565.631
 02  1 10  0 17  0.0000000  0  7G20G13G11G 1G 4G25G 7
 -26100447.76749 -19881538.11847  20889987.520    20889986.693    20889989.801
 -21424341.55349 -16661484.29847  21433207.242    21433207.149    21433209.747
  -9120442.07849  -7068000.30546  23426580.749    23426580.056    23426582.341
 -26008545.86749 -20174315.98448  20314024.891    20314024.344    20314028.134
 -19060607.36149 -14835123.34647  22013288.232    22013288.527    22013291.478
 -12417809.21449  -9662398.80945  24119519.800    24119519.384    24119521.924
 -16186288.29249 -11797365.02246  22526175.337    22526173.615    22526179.846
 02  1 10  0 17 30.0000000  0  7G20G13G11G 1G 4G25G 7
 -26055729.60349 -19846692.80147  20898497.086    20898496.512    20898499.355
 -21500418.80249 -16720765.24647  21418730.200    21418730.052    21418733.034
  -9016636.37449  -6987112.74946  23446334.234    23446335.060    23446336.271
 -26017387.79649 -20181205.79448  20312342.336    20312341.878    20312345.658
 -19136849.20849 -14894532.56547  21998779.908    21998779.862    21998782.878
 -12366066.85649  -9622080.08345  24129366.048    24129365.798    24129370.322
 -16135323.89949 -11757652.54746  22535873.410    22535873.579    22535876.993
 02  1 10  0 18  0.0000000  0  7G20G13G11G 1G 4G25G 7
 -26010728.71549 -19811627.17947  20907060.462    20907059.994    20907062.895
 -21576098.66649 -16779736.53547  21404328.703    21404328.712    21404331.994
  -8912648.96449  -6906083.58646  23466122.333    23466123.041    23466125.573
 -26025719.52949 -20187698.04648  20310756.880    20310756.456    20310760.266
 -19212782.97149 -14953701.72247  21984330.196    21984330.495    21984333.306
 -12313873.31249  -9581409.80145  24139298.162    24139298.222    24139300.037
 -16083919.88549 -11717597.47346  22545655.520    22545655.807    22545658.342
 02  1 10  0 18 30.0000000  0  7G20G13G11G 1G 4G25G 7
 -25965443.93149 -19776340.34347  20915677.797    20915677.138    20915680.076
 -21651378.77949 -16838396.34747  21390003.367    21390003.669    21390006.164
  -8808480.48149  -6824913.34446  23485944.995    23485944.569    23485947.239
 -26033540.07949 -20193791.97648  20309268.656    20309268.166    20309271.947
 -19288404.99049 -15012627.97047  21969939.846    21969940.217    21969942.925
 -12261228.86749  -9540388.15845  24149315.994    24149316.086    24149319.603
 -16032076.83849 -11677200.32746  22555520.879    22555519.639    22555525.973
 02  1 10  0 19  0.0000000  0  7G20G13G11G 1G 4G25G 7
 -25919876.01149 -19740832.87647  20924349.025    20924348.305    20924351.696
 -21726258.08749 -16896743.83447  21375754.326    21375754.563    21375757.185
  -8704132.71949  -6743603.40145  23505801.691    23505801.682    23505804.461
 -26040850.15149 -20199488.13748  20307877.582    20307877.219    20307881.052
 -19363713.27149 -15071309.73847  21955609.208    21955609.178    21955611.984
 -12208135.21049  -9499016.48345  24159419.440    24159418.882    24159421.736
 -15979797.34149 -11636463.10746  22565469.231    22565468.731    22565473.509
 02  1 10  0 19 30.0000000  0  7G20G13G11G 1G 4G25G 7
 -25874026.57449 -19705106.04947  20933073.885    20933073.255    20933076.561
 -21800736.22749 -16954778.72447  21361581.609    21361581.365    21361584.544
  -8599608.65149  -6662156.08745  23525691.968    23525691.802    23525694.673
 -26047651.34949 -20204787.78348  20306583.367    20306582.775    20306586.661
 -19438706.60249 -15129746.09947  21941338.502    21941339.087    21941341.665
 -12154594.89349  -9457296.76145  24169607.732    24169608.198    24169611.042
 -15927084.54849 -11595388.22546  22575500.259    22575500.386    22575504.429
 02  1 10  0 20  0.0000000  0  7G20G13G11G 1G 4G25G 7
 -25827894.46049 -19669158.94947  20941852.597    20941852.048    20941855.169
 -21874810.46849 -17012498.88047  21347485.675    21347485.813    21347488.423
  -8494908.52149  -6580571.57545  23545615.810    23545615.739    23545618.695
 -26053942.66749 -20209690.10648  20305386.145    20305385.914    20305389.439
 -19513381.23249 -15187934.11147  21927128.412    21927128.415    21927131.501
 -12100608.21649  -9415229.23145  24179880.952    24179880.977    24179883.303
 -15873939.09649 -11553976.19346  22585613.553    22585612.326    22585617.327
 02  1 10  0 20 30.0000000  0  7G20G13G11G 1G 4G25G 7
 -25781480.36749 -19632992.12647  20950684.862    20950684.383    20950687.400
 -21948479.22049 -17069903.08047  21333467.006    21333467.188    21333469.972
  -8390034.09749  -6498851.24545  23565572.833    23565572.684    23565575.064
 -26059724.71849 -20214195.59448  20304285.899    20304285.376    20304289.153
 -19587735.11949 -15245872.20947  21912979.361    21912979.410    21912982.531
 -12046176.99449  -9372815.29845  24190238.861    24190239.076    24190242.019
 -15820363.41349 -11512228.95946  22595808.589    22595808.867    22595814.046
 02  1 10  0 21  0.0000000  0  7G20G13G11G 1G 4G25G 7
 -25734785.70249 -19596606.67447  20959570.600    20959570.052    20959572.849
 -22021742.26949 -17126991.14147  21319525.481    21319525.580    21319528.198
  -8284988.17549  -6416997.28645  23585562.405    23585562.065    23585564.287
 -26064998.83849 -20218305.28848  20303282.203    20303281.521    20303285.486
 -19661766.53449 -15303559.01747  21898891.625    21898891.503    21898894.676
 -11991303.35349  -9330056.62045  24200680.958    24200680.937    24200683.652
 -15766360.59349 -11470148.88046  22606085.217    22606084.493    22606089.482
 02  1 10  0 21 30.0000000  0  7G20G13G11G 1G 4G25G 7
 -25687809.53649 -19560001.88347  20968509.895    20968509.383    20968512.396
 -22094597.08849 -17183761.11547  21305661.670    21305661.857    21305664.164
  -8179771.34049  -6335010.14345  23605584.461    23605584.424    23605586.141
 -26069764.49549 -20222018.79448  20302375.337    20302374.858    20302378.573
 -19735472.27449 -15360992.06947  21884865.935    21884865.893    21884868.745
 -11935987.76449  -9286953.56745  24211207.100    24211207.610    24211210.270
 -15711931.74149 -11427736.84746  22616442.600    22616441.094    22616446.246
 02  1 10  0 22  0.0000000  0  7G20G13G11G 1G 4G25G 7
 -25640554.03349 -19523179.41447  20977502.329    20977501.628    20977504.736
 -22167043.65849 -17240212.96047  21291875.507    21291875.601    21291878.496
  -8074387.05249  -6252892.52545  23625638.408    23625638.201    23625641.609
 -26074023.81549 -20225337.74748  20301564.754    20301564.339    20301568.092
 -19808851.54949 -15418170.72047  21870902.329    21870902.789    21870905.464
 -11880233.55649  -9243508.74445  24221817.095    24221817.445    24221819.794
 -15657080.60349 -11384995.73046  22626880.269    22626880.497    22626884.980
 02  1 10  0 22 30.0000000  0  7G20G13G11G 1G 4G25G 7
 -25593018.75049 -19486138.94447  20986548.039    20986547.625    20986550.427
 -22239080.29349 -17296345.38047  21278167.374    21278167.471    21278170.446
  -7968836.25449  -6170645.15445  23645724.172    23645724.476    23645727.647
 -26077776.66349 -20228262.04448  20300850.620    20300850.114    20300853.985
 -19881901.34049 -15475092.62947  21857001.410    21857001.593    21857004.411
 -11824041.79649  -9199722.95745  24232510.052    24232510.622    24232513.671
 -15601808.59649 -11341926.66446  22637398.416    22637398.325    22637403.132
 02  1 10  0 23  0.0000000  0  7G20G13G11G 1G 4G25G 7
 -25545204.46349 -19448881.06347  20995646.807    20995646.237    20995649.241
 -22310706.15849 -17352157.71247  21264537.406    21264537.167    21264540.338
  -7863120.98149  -6088269.61245  23665841.099    23665840.579    23665844.512
 -26081023.85349 -20230792.31848  20300232.660    20300232.242    20300236.038
 -19954619.57349 -15531756.19147  21843163.615    21843163.802    21843166.865
 -11767414.00049  -9155597.39245  24243285.936    24243285.972    24243288.389
 -15546118.44249 -11298531.79446  22647995.850    22647995.149    22648001.219
 02  1 10  0 23 30.0000000  0  7G20G13G11G 1G 4G25G 7
 -25497112.02049 -19411406.44247  21004798.522    21004798.091    21004800.818
 -22381919.71049 -17407648.76347  21250985.920    21250986.098    21250988.556
  -7757243.25449  -6005767.49045  23685988.901    23685988.911    23685992.346
 -26083766.14049 -20232929.16248  20299710.809    20299710.363    20299714.334
 -20027004.19949 -15588159.79347  21829389.342    21829389.628    21829392.356
 -11710352.26049  -9111133.68445  24254144.393    24254145.205    24254147.474
 -15490012.62549 -11254813.01946  22658672.389    22658672.467    22658676.033
 02  1 10  0 24  0.0000000  0  7G20G13G11G 1G 4G25G 7
 -25448741.40649 -19373715.05647  21014003.163    21014002.469    21014005.568
 -22452719.34749 -17462817.28747  21237513.220    21237513.425    21237516.148
  -7651204.62249  -5923139.98345  23706167.255    23706166.742    23706169.500
 -26086003.77049 -20234672.76448  20299285.030    20299284.688    20299288.454
 -20099052.36749 -15644301.22247  21815678.957    21815679.309    21815681.974
 -11652857.86249  -9066332.84645  24265085.256    24265085.081    24265088.141
 -15433493.08049 -11210771.80946  22669427.969    22669427.222    22669431.981
 02  1 10  0 24 30.0000000  0  7G20G13G11G 1G 4G25G 7
 -25400092.70649 -19335806.98447  21023260.707    21023260.060    21023262.998
 -22523103.55649 -17517662.10147  21224119.521    21224119.778    21224122.347
  -7545006.39849  -5840388.13545  23726375.965    23726375.542    23726379.086
 -26087737.13049 -20236023.43148  20298955.165    20298954.856    20298958.510
 -20170761.92349 -15700178.80047  21802033.087    21802033.566    21802036.429
 -11594931.75649  -9021195.61045  24276108.157    24276107.910    24276111.195
 -15376561.86749 -11166409.88646  22680261.390    22680259.623    22680266.078
 02  1 10  0 25  0.0000000  0  7G20G13G11G 1G 4G25G 7
 -25351166.96349 -19297683.03347  21032570.942    21032570.385    21032573.275
 -22593071.78049 -17572182.77847  21210805.060    21210805.215    21210807.581
  -7438651.26949  -5757514.00545  23746614.874    23746615.100    23746617.872
 -26088967.36349 -20236982.05248  20298721.073    20298720.808    20298724.461
 -20242130.84449 -15755790.94747  21788452.033    21788451.889    21788455.307
 -11536576.63849  -8975724.10345  24287212.629    24287212.613    24287214.350
 -15319221.85049 -11121729.41746  22691172.654    22691173.088    22691177.271
 02  1 10  0 25 30.0000000  0  7G20G13G11G 1G 4G25G 7
 -25301965.21449 -19259344.01147  21041933.684    21041932.813    21041936.085
 -22662623.12849 -17626378.61147  21197569.819    21197569.828    21197572.473
  -7332141.17049  -5674519.12245  23766883.043    23766882.300    23766886.490
 -26089695.65949 -20237549.55248  20298582.486    20298582.094    20298585.964
 -20313157.48949 -15811136.38147  21774936.120    21774936.345    21774939.453
 -11477794.60049  -8929919.90345  24298398.538    24298398.319    24298400.068
 -15261475.89749 -11076732.56446  22702161.565    22702161.471    22702165.692
 02  1 10  0 26  0.0000000  0  7G20G13G11G 1G 4G25G 7
 -25252487.91649 -19220790.28847  21051348.880    21051348.155    21051351.332
 -22731756.61949 -17680248.84647  21184414.072    21184414.305    21184416.799
  -7225477.90949  -5591404.89745  23787180.414    23787180.468    23787183.441
 -26089922.97849 -20237726.68448  20298539.216    20298538.834    20298542.481
 -20383839.62049 -15866213.36947  21761485.687    21761485.467    21761488.693
 -11418587.38549  -8883784.40645  24309665.252    24309664.340    24309667.844
 -15203326.45649 -11031421.32546  22713227.013    22713225.821    22713232.527
 02  1 10  0 26 30.0000000  0  7G20G13G11G 1G 4G25G 7
 -25202734.60249 -19182021.48047  21060816.593    21060815.811    21060819.214
 -22800470.42449 -17733792.04947  21171338.318    21171338.287    21171341.090
  -7118662.86749  -5508172.41245  23807506.748    23807506.876    23807509.238
 -26089649.13149 -20237513.29648  20298591.313    20298590.908    20298594.621
 -20454174.24349 -15921019.57147  21748101.367    21748101.473    21748104.604
 -11358956.09749  -8837318.47745  24321012.753    24321011.724    24321013.979
 -15144775.11849 -10985796.98446  22724368.902    22724369.436    22724374.616
 02  1 10  0 27  0.0000000  0  7G20G13G11G 1G 4G25G 7
 -25152707.26049 -19143039.14547  21070336.434    21070335.840    21070338.952
 -22868764.40949 -17787008.12347  21158342.371    21158342.374    21158345.116
  -7011699.17349  -5424824.08045  23827861.474    23827862.514    23827863.388
 -26088876.08649 -20236910.92048  20298738.437    20298738.106    20298741.772
 -20524160.25349 -15975554.12447  21734783.484    21734783.522    21734786.793
 -11298903.85649  -8790524.53545  24332440.364    24332439.752    24332442.001
 -15085825.57549 -10939862.31446  22735586.984    22735586.651    22735591.147
 02  1 10  0 27 30.0000000  0  7G20G13G11G 1G 4G25G 7
 -25102405.76449 -19103843.17947  21079908.500    21079907.973    21079911.112
 -22936636.97849 -17839895.81747  21145426.634    21145426.566    21145429.230
  -6904588.18349  -5341360.96445  23848244.293    23848243.335    23848246.578
 -26087604.17649 -20235919.80548  20298980.496    20298980.308    20298983.831
 -20593794.96549 -16029814.93747  21721532.440    21721532.426    21721535.780
 -11238432.34049  -8743403.85945  24343947.839    24343947.976    24343950.600
 -15026479.86449 -10893618.91346  22746880.083    22746879.443    22746884.133
 02  1 10  0 28  0.0000000  0  7G20G13G11G 1G 4G25G 7
 -25051829.87049 -19064433.40547  21089532.767    21089532.421    21089535.593
 -23004086.29649 -17892453.70847  21132591.414    21132591.521    21132594.244
  -6797330.80549  -5257783.79145  23868654.652    23868654.554    23868656.948
 -26085833.44149 -20234540.01548  20299317.438    20299317.065    20299320.910
 -20663075.51849 -16083799.78747  21708348.790    21708348.693    21708351.970
 -11177542.25949  -8695957.06245  24355534.751    24355535.134    24355537.467
 -14966739.48149 -10847068.02146  22758248.166    22758248.862    22758253.591
 02  1 10  0 28 30.0000000  0  7G20G13G11G 1G 4G25G 7
 -25000980.80649 -19024810.76647  21099209.121    21099208.672    21099211.729
 -23071111.78849 -17944681.34147  21119836.837    21119836.941    21119839.682
  -6689929.77049  -5174094.67745  23889092.225    23889091.736    23889094.381
 -26083565.09349 -20232772.46848  20299749.132    20299748.796    20299752.483
 -20731999.94749 -16137507.13847  21695232.896    21695233.193    21695236.235
 -11116235.54149  -8648185.60145  24367201.222    24367201.497    24367204.172
 -14906607.72949 -10800212.16746  22769691.193    22769690.501    22769695.673
 02  1 10  0 29  0.0000000  0  7G20G13G11G 1G 4G25G 7
 -24949858.67149 -18984975.34147  21108937.356    21108936.937    21108939.906
 -23137712.05349 -17996577.62847  21107163.205    21107163.275    21107165.801
  -6582386.59049  -5090294.79945  23909556.772    23909556.918    23909559.501
 -26080799.89249 -20230617.76248  20300275.334    20300274.902    20300278.635
 -20800566.18649 -16190935.37747  21682185.176    21682185.355    21682188.425
 -11054514.12449  -8600090.99845  24378946.422    24378946.377    24378949.410
 -14846086.67449 -10753052.95646  22781207.933    22781207.478    22781212.347
 02  1 10  0 29 30.0000000  0  7G20G13G11G 1G 4G25G 7
 -24898463.96649 -18944927.52447  21118717.466    21118716.917    21118720.153
 -23203886.11349 -18048141.81047  21094570.635    21094570.703    21094573.410
  -6474703.07449  -5006385.57845  23930048.304    23930047.343    23930051.409
 -26077538.53949 -20228076.44448  20300895.947    20300895.562    20300899.201
 -20868771.82249 -16244082.62747  21669206.075    21669206.201    21669209.370
 -10992379.75749  -8551674.59845  24390770.263    24390770.041    24390773.394
 -14785178.81449 -10705592.28546  22792798.274    22792797.784    22792802.935
 02  1 10  0 30  0.0000000  0  7G20G13G11G 1G 4G25G 7
 -24846797.27949 -18904667.77647  21128549.288    21128548.850    21128551.952
 -23269633.07949 -18099373.19247  21082059.378    21082059.704    21082062.308
  -6366880.96049  -4922368.34845  23950566.328    23950565.738    23950569.478
 -26073781.93049 -20225149.20748  20301610.797    20301610.238    20301613.938
 -20936614.55149 -16296947.09247  21656296.038    21656295.968    21656299.125
 -10929834.36749  -8502937.93745  24402672.182    24402671.502    24402674.975
 -14723886.75849 -10657832.28246  22804461.761    22804460.281    22804466.158
 02  1 10  0 30 30.0000000  0  7G20G13G11G 1G 4G25G 7
 -24794859.45649 -18864196.75547  21138432.711    21138432.048    21138435.319
 -23334952.21649 -18150271.20247  21069629.599    21069629.799    21069632.515
  -6258922.90949  -4838245.18445  23971110.198    23971109.766    23971112.176
 -26069531.44049 -20221837.12948  20302419.616    20302419.228    20302422.798
 -21004092.69549 -16349527.46747  21643455.397    21643455.558    21643458.815
 -10866880.36249  -8453882.87945  24414651.855    24414651.508    24414655.496
 -14662213.36549 -10609775.17946  22816197.636    22816197.365    22816201.964
 02  1 10  0 31  0.0000000  0  7G20G13G11G 1G 4G25G 7
 -24742651.03749 -18823514.87947  21148367.646    21148367.170    21148370.306
 -23399842.55749 -18200835.08047  21057281.318    21057281.527    21057283.995
  -6150830.70549  -4754017.49445  23991679.481    23991679.606    23991682.698
 -26064787.83649 -20218140.80948  20303322.297    20303322.023    20303325.538
 -21071204.19249 -16401822.13847  21630684.434    21630684.519    21630687.878
 -10803519.47649  -8404510.76145  24426708.985    24426708.292    24426711.800
 -14600161.36549 -10561422.99146  22828005.980    22828005.381    22828009.304
 02  1 10  0 31 30.0000000  0  7G20G13G11G 1G 4G25G 7
 -24690171.98649 -18782622.11947  21158354.122    21158353.587    21158356.817
 -23464302.34849 -18251063.47847  21045015.063    21045015.279    21045017.838
  -6042605.61749  -4669686.26645  24012274.200    24012273.939    24012277.578
 -26059551.47549 -20214060.52948  20304318.788    20304318.443    20304322.118
 -21137946.12249 -16453828.83647  21617983.880    21617984.201    21617987.293
 -10739752.99849  -8354822.59945  24438843.335    24438843.051    24438846.283
 -14537732.42949 -10512777.09646  22839885.863    22839885.077    22839892.196
 02  1 10  0 32  0.0000000  0  7G20G13G11G 1G 4G25G 7
 -24637424.42849 -18741520.13547  21168391.606    21168390.938    21168394.148
 -23528332.14749 -18300956.80447  21032830.573    21032830.604    21032833.418
  -5934251.30149  -4585254.33845  24032893.263    24032893.724    24032895.179
 -26053825.12249 -20209598.43248  20305408.453    20305408.128    20305411.535
 -21204317.82149 -16505547.04747  21605353.835    21605353.945    21605357.363
 -10675584.52849  -8304821.20245  24451053.979    24451053.328    24451057.959
 -14474931.00649 -10463840.99446  22851836.355    22851836.663    22851841.035
 02  1 10  0 32 30.0000000  0  8G20G24G13G11G 1G 4G25G 7
 -24584407.52149 -18700208.26247  21178480.354    21178479.704    21178482.759
  -3698202.26149  -2858290.70745  24926699.661    24926699.545    24926704.322
 -23591929.54449 -18350513.18847  21020728.369    21020728.582    21020730.989
  -5825768.08849  -4500721.95945  24053536.896    24053536.803    24053538.826
 -26047608.00449 -20204753.91948  20306591.538    20306591.259    20306594.677
 -21270315.84549 -16556974.07847  21592794.764    21592794.889    21592798.355
 -10611014.83749  -8254507.17545  24463341.028    24463341.161    24463343.357
 -14411758.17049 -10414615.43546  22863857.943    22863858.580    22863863.097
 02  1 10  0 33  0.0000000  0  8G20G24G13G11G 1G 4G25G 7
 -24531123.93049 -18658688.58647  21188619.857    21188619.374    21188622.470
  -3800303.01449  -2937849.64145  24907270.515    24907270.775    24907275.000
 -23655095.81749 -18399733.64447  21008708.295    21008708.614    21008711.162
  -5717160.27649  -4416092.49645  24074204.204    24074203.206    24074206.588
 -26040903.27249 -20199529.44748  20307867.420    20307867.086    20307870.561
 -21335940.21449 -16608109.95247  21580306.809    21580306.884    21580310.299
 -10546048.03649  -8203883.69445  24475703.734    24475702.054    24475707.218
 -14348218.87149 -10365104.30446  22875949.275    22875949.210    22875953.734
 02  1 10  0 33 30.0000000  0  8G20G24G13G11G 1G 4G25G 7
 -24477570.98349 -18616959.02947  21198810.713    21198810.039    21198813.390
  -3902340.91449  -3017359.74545  24887853.765    24887852.948    24887855.629
 -23717826.90249 -18448614.98747  20996770.908    20996770.788    20996773.573
  -5608426.43849  -4331364.83345  24094895.448    24094894.192    24094898.408
 -26033708.71049 -20193923.28548  20309236.492    20309236.028    20309239.675
 -21401185.47549 -16658950.41447  21567890.949    21567891.130    21567894.402
 -10480682.86949  -8152949.82445  24488142.217    24488142.512    24488146.288
 -14284312.35549 -10315307.10946  22888110.103    22888109.631    22888116.085
 02  1 10  0 34  0.0000000  0  8G20G24G13G11G 1G 4G25G 7
 -24423747.74449 -18575018.85247  21209052.952    21209052.478    21209055.641
  -4004312.40849  -3096818.01245  24868449.568    24868449.960    24868452.263
 -23780120.28749 -18497155.26747  20984916.776    20984917.024    20984919.724
  -5499567.09449  -4246539.37445  24115610.468    24115610.480    24115613.809
 -26026023.94449 -20187935.15348  20310698.880    20310698.506    20310701.887
 -21466048.06149 -16709492.68647  21555547.965    21555548.195    21555551.784
 -10414919.66849  -8101705.76745  24500656.615    24500657.768    24500661.387
 -14220039.75849 -10265224.62446  22900340.841    22900340.804    22900346.721
 02  1 10  0 34 30.0000000  0  8G20G24G13G11G 1G 4G25G 7
 -24369658.80349 -18532871.63347  21219345.768    21219345.043    21219348.200
  -4106220.72149  -3176227.06145  24849056.951    24849055.487    24849060.661
 -23841979.63849 -18545357.34347  20973145.414    20973145.853    20973148.319
  -5390588.35949  -4161620.88545  24136348.530    24136348.684    24136351.577
 -26017854.26349 -20181569.16748  20312253.492    20312253.140    20312256.670
 -21530530.01949 -16759738.37547  21543277.469    21543277.989    21543280.644
 -10348764.52449  -8050156.31745  24513245.399    24513245.124    24513247.825
 -14155407.96949 -10214862.23146  22912640.117    22912639.999    22912644.349
 02  1 10  0 35  0.0000000  0  8G20G24G13G11G 1G 4G25G 7
 -24315301.52149 -18490515.32247  21229689.653    21229688.902    21229692.120
  -4208059.76549  -3255582.11745  24829677.409    24829677.382    24829681.901
 -23903400.45849 -18593217.70247  20961457.455    20961457.605    20961459.998
  -5281488.68349  -4076608.15845  24157109.633    24157109.461    24157112.923
 -26009197.42149 -20174823.57148  20313900.816    20313900.409    20313903.971
 -21594625.77449 -16809683.11347  21531080.477    21531080.603    21531083.802
 -10282216.12049  -7998300.39745  24525909.364    24525909.736    24525911.795
 -14090416.31549 -10164219.40146  22925007.503    22925007.008    22925011.361
 02  1 10  0 35 30.0000000  0  8G20G24G13G11G 1G 4G25G 7
 -24260678.65049 -18447952.06047  21240084.045    21240083.606    21240086.509
  -4309830.17549  -3334883.73745  24810311.053    24810309.950    24810314.178
 -23964384.14449 -18640737.44247  20949852.611    20949852.579    20949855.335
  -5172272.38449  -3991504.53845  24177893.028    24177892.753    24177895.477
 -26000056.58649 -20167700.84248  20315640.267    20315639.955    20315643.275
 -21658335.45949 -16859327.03047  21518956.959    21518957.146    21518960.126
 -10215278.70149  -7946141.34945  24538647.300    24538646.479    24538649.083
 -14025069.78249 -10113300.06546  22937442.555    22937442.609    22937448.745
 02  1 10  0 36  0.0000000  0  8G20G24G13G11G 1G 4G25G 7
 -24205791.49649 -18405182.85747  21250528.722    21250528.315    21250531.391
  -4411530.54849  -3414130.73545  24790957.972    24790958.077    24790961.855
 -24024930.44749 -18687916.35847  20938331.011    20938331.225    20938333.679
  -5062942.26349  -3906312.22345  24198697.783    24198696.641    24198699.766
 -25990433.72849 -20160202.51048  20317471.453    20317471.057    20317474.613
 -21721657.89249 -16908669.18747  21506907.150    21506907.468    21506910.363
 -10147955.54549  -7893681.74045  24551458.602    24551459.099    24551460.887
 -13959371.74149 -10062106.86146  22949944.529    22949944.494    22949949.367
 02  1 10  0 36 30.0000000  0  8G20G24G13G11G 1G 4G25G 7
 -24150636.69649 -18362205.09847  21261024.330    21261023.929    21261027.058
  -4513155.18149  -3493318.73145  24771619.522    24771619.365    24771623.394
 -24085034.76349 -18734750.86847  20926893.536    20926893.663    20926896.122
  -4953496.20249  -3821029.58145  24219524.613    24219523.793    24219527.286
 -25980325.83949 -20152326.23048  20319394.915    20319394.616    20319398.112
 -21784586.77949 -16957704.69147  21494932.318    21494932.588    21494935.316
 -10080244.30749  -7840919.72845  24564343.738    24564343.609    24564346.939
 -13893320.91749 -10010638.77246  22962513.502    22962514.162    22962517.379
 02  1 10  0 37  0.0000000  0  8G20G24G13G11G 1G 4G25G 7
 -24095217.90549 -18319021.63747  21271570.252    21271569.669    21271572.907
  -4614704.96349  -3572448.43645  24752295.183    24752294.563    24752298.812
 -24144699.19049 -18781242.60147  20915539.719    20915539.773    20915542.430
  -4843939.33949  -3735660.60445  24240372.414    24240372.080    24240374.447
 -25969737.17149 -20144075.31748  20321409.873    20321409.551    20321412.995
 -21847123.33949 -17006434.48047  21483031.961    21483032.086    21483035.317
 -10012150.43149  -7787859.55545  24577301.601    24577301.208    24577304.951
 -13826923.30649  -9958900.39946  22975148.773    22975148.496    22975152.966
 02  1 10  0 37 30.0000000  0  8G20G24G13G11G 1G 4G25G 7
 -24039535.33749 -18275632.63247  21282166.282    21282165.593    21282168.821
  -4716178.13349  -3651518.43145  24732985.657    24732984.631    24732990.119
 -24203922.72549 -18827390.78847  20904269.820    20904269.975    20904272.597
  -4734273.43349  -3650206.66345  24261241.136    24261240.093    24261243.939
 -25958668.64749 -20135450.48848  20323516.116    20323515.683    20323519.338
 -21909264.96149 -17054856.52347  21471206.807    21471206.683    21471210.164
  -9943675.35749  -7734502.36145  24590332.082    24590331.298    24590334.735
 -13760181.19149  -9906893.62346  22987849.453    22987848.813    22987854.649
 02  1 10  0 38  0.0000000  0  8G20G24G13G11G 1G 4G25G 7
 -23983589.35749 -18232038.37647  21292812.476    21292811.793    21292815.031
  -4817572.23649  -3730526.76345  24713690.861    24713690.768    24713694.229
 -24262704.50549 -18873194.74847  20893083.984    20893084.179    20893086.659
  -4624500.10549  -3564668.99345  24282130.263    24282129.931    24282132.153
 -25947121.09449 -20126452.39148  20325713.541    20325713.102    20325716.839
 -21971009.38849 -17102969.06047  21459457.242    21459457.397    21459460.373
  -9874820.93149  -7680849.55545  24603434.785    24603435.046    24603437.575
 -13693097.08149  -9854620.39546  23000614.916    23000614.426    23000620.161
 02  1 10  0 38 30.0000000  0  8G20G24G13G11G 1G 4G25G 7
 -23927379.86249 -18188238.78047  21303508.758    21303508.058    21303511.522
  -4918884.25949  -3809471.19845  24694411.965    24694411.535    24694413.737
 -24321042.89249 -18918653.21147  20881982.553    20881982.774    20881985.113
  -4514620.61249  -3479048.61545  24303039.567    24303039.526    24303042.777
 -25935094.88349 -20117081.31548  20328002.010    20328001.567    20328005.272
 -22032353.93849 -17150770.00847  21447783.703    21447783.658    21447786.897
  -9805588.85049  -7626902.48045  24616609.194    24616608.407    24616612.762
 -13625673.20849  -9802082.33346  23013445.388    23013446.053    23013448.892
 02  1 10  0 39  0.0000000  0  8G20G24G13G11G 1G 4G25G 7
 -23870908.36049 -18144235.02247  21314254.896    21314254.239    21314257.603
  -5020113.37849  -3888351.03245  24675148.724    24675149.539    24675152.596
 -24378937.99349 -18963766.25647  20870965.512    20870965.461    20870968.038
  -4404638.15149  -3393347.98245  24323968.666    24323968.127    24323971.609
 -25922592.11449 -20107338.88748  20330381.166    20330380.840    20330384.482
 -22093297.39749 -17198258.41647  21436186.527    21436186.667    21436189.758
  -9735981.89749  -7572663.33645  24629854.832    24629854.886    24629857.824
 -13557912.98749  -9749282.21246  23026339.756    23026339.527    23026345.133
 02  1 10  0 39 30.0000000  0  8G20G24G13G11G 1G 4G25G 7
 -23814173.91249 -18100026.36847  21325051.119    21325050.695    21325053.962
  -5121256.68149  -3967163.94645  24655901.860    24655901.904    24655903.767
 -24436387.85149 -19008532.35847  20860033.148    20860033.289    20860035.702
  -4294553.07249  -3307567.39845  24344917.216    24344916.155    24344920.113
 -25909612.54949 -20097224.93848  20332851.126    20332850.770    20332854.399
 -22153836.29149 -17245431.58247  21424666.360    21424666.902    21424669.761
  -9666001.15549  -7518132.88745  24643171.700    24643172.117    24643174.533
 -13489817.88449  -9696221.17846  23039297.861    23039298.266    23039302.774
 02  1 10  0 40  0.0000000  0  8G20G24G13G11G 1G 4G25G 7
 -23757177.83649 -18055613.84747  21335897.169    21335896.556    21335899.869
  -5222312.56749  -4045908.81045  24636671.527    24636670.938    24636676.254
 -24493392.20349 -19052951.31647  20849185.573    20849185.809    20849187.965
  -4184367.84349  -3221708.78945  24365884.875    24365884.449    24365887.225
 -25896158.08849 -20086740.93448  20335411.427    20335410.968    20335414.599
 -22213969.37149 -17292288.52947  21413223.438    21413223.674    21413226.626
  -9595649.31649  -7463313.29445  24656559.131    24656558.390    24656561.595
 -13421391.52749  -9642901.97746  23052319.182    23052318.342    23052324.276
 02  1 10  0 40 30.0000000  0  8G20G24G13G11G 1G 4G25G 7
 -23699921.59549 -18010998.60447  21346792.693    21346791.764    21346795.175
  -5323279.60849  -4124584.39445  24617458.094    24617456.460    24617460.476
 -24549951.53449 -19097023.50147  20838422.685    20838422.810    20838425.230
  -4074085.68149  -3135774.61845  24386871.020    24386869.681    24386873.226
 -25882230.86549 -20075888.54648  20338061.700    20338061.373    20338064.932
 -22273695.28849 -17338828.20447  21401858.021    21401858.212    21401861.292
  -9524928.97949  -7408206.56445  24670016.646    24670016.373    24670021.635
 -13352637.47149  -9589327.42945  23065402.529    23065400.565    23065407.235
 02  1 10  0 41  0.0000000  0  8G20G24G13G11G 1G 4G25G 7
 -23642403.83049 -17966179.57747  21357737.919    21357737.336    21357740.027
  -5424154.42949  -4203188.11745  24598262.195    24598260.808    24598263.812
 -24606063.26149 -19140746.91148  20827744.934    20827744.952    20827747.360
  -3963706.61649  -3049764.95345  24407875.386    24407874.220    24407877.576
 -25867830.12349 -20064667.18948  20340802.024    20340801.656    20340805.424
 -22333010.14349 -17385047.57147  21390570.730    21390570.846    21390574.302
  -9453840.47749  -7352812.92945  24683544.101    24683542.859    24683546.693
 -13283556.66949  -9535498.29045  23078548.159    23078548.683    23078552.836
 02  1 10  0 41 30.0000000  0  8G20G24G13G11G 1G 4G25G 7
 -23584626.51349 -17921158.30447  21368732.618    21368732.105    21368735.038
  -5524936.08049  -4281719.24845  24579083.965    24579083.235    24579088.025
 -24661727.71649 -19184121.79748  20817152.347    20817152.625    20817154.877
  -3853233.98749  -2963682.36945  24428897.447    24428896.447    24428899.169
 -25852958.35249 -20053078.79648  20343632.052    20343631.637    20343635.381
 -22391913.30249 -17430946.14047  21379361.808    21379362.146    21379365.072
  -9382387.72649  -7297135.48745  24697141.032    24697141.205    24697142.442
 -13214153.25949  -9481417.76846  23091755.337    23091755.410    23091761.025
 02  1 10  0 42  0.0000000  0  8G20G24G13G11G 1G 4G25G 7
 -23526588.52749 -17875933.90647  21379776.914    21379776.429    21379779.523
  -5625620.99049  -4360175.03145  24559924.197    24559924.368    24559927.834
 -24716942.52349 -19227146.29848  20806645.309    20806645.499    20806648.056
  -3742668.21349  -2877527.22545  24449937.292    24449937.321    24449939.945
 -25837615.24049 -20041123.11548  20346551.736    20346551.376    20346555.083
 -22450400.90249 -17476520.89147  21368232.011    21368232.351    21368235.200
  -9310571.32849  -7241174.67145  24710807.227    24710806.824    24710812.325
 -13144428.34349  -9427086.70345  23105023.497    23105023.415    23105027.861
 02  1 10  0 42 30.0000000  0  8G20G24G13G11G 1G 4G25G 7
 -23468292.49949 -17830508.44447  21390870.331    21390869.649    21390872.802
  -5726208.90149  -4438555.20445  24540783.124    24540782.860    24540785.834
 -24771709.20749 -19269821.62348  20796223.513    20796223.874    20796226.162
  -3632013.01149  -2791302.40745  24470994.171    24470993.814    24470996.285
 -25821804.09349 -20028802.73848  20349560.501    20349560.123    20349563.892
 -22508472.86549 -17521771.76847  21357181.323    21357181.611    21357184.749
  -9238395.24349  -7184933.56645  24724541.923    24724541.276    24724544.415
 -13074386.75749  -9372508.87445  23118351.945    23118351.318    23118356.820
 02  1 10  0 43  0.0000000  0  8G20G24G13G11G 1G 4G25G 7
 -23409737.14249 -17784880.91147  21402013.104    21402012.425    21402015.690
  -5826696.44449  -4516857.14545  24521660.842    24521661.107    24521664.852
 -24826025.52749 -19312146.01548  20785887.451    20785887.599    20785890.170
  -3521268.69949  -2705008.11945  24492068.223    24492067.724    24492070.757
 -25805524.38849 -20016117.25448  20352658.415    20352658.058    20352661.647
 -22566125.61249 -17566695.98947  21346210.385    21346210.676    21346213.736
  -9165859.51749  -7128412.21445  24738345.072    24738345.760    24738347.460
 -13004029.53249  -9317685.11145  23131740.428    23131740.319    23131746.271
 02  1 10  0 43 30.0000000  0  9G20G24G13G11G27G 1G 4G25G 7
 -23350924.88349 -17739053.19147  21413204.715    21413203.917    21413206.979
  -5927083.07849  -4595080.49545  24502558.035    24502556.323    24502561.144
 -24879892.36549 -19354120.15048  20775636.900    20775637.156    20775639.656
  -3410439.00649  -2618647.31145  24513158.361    24513157.824    24513161.791
   -912293.15049   -692286.63745  24889713.155    24889712.680    24889718.050
 -25788779.18749 -20003069.04248  20355844.947    20355844.612    20355848.184
 -22623358.87249 -17611293.33147  21335319.262    21335319.456    21335322.338
  -9092968.43149  -7071613.93845  24752215.894    24752214.938    24752220.940
 -12933361.34449  -9262619.06145  23145188.229    23145187.330    23145192.895
 02  1 10  0 44  0.0000000  0  9G20G24G13G11G27G 1G 4G25G 7
 -23291855.91749 -17693025.43247  21424445.158    21424444.516    21424447.828
  -6027366.57549  -4673223.47945  24483474.727    24483474.743    24483476.818
 -24933309.17849 -19395743.62448  20765472.055    20765472.453    20765474.619
  -3299525.77749  -2532221.42945  24534264.301    24534264.262    24534267.427
  -1013498.48449   -771147.93745  24870454.412    24870454.553    24870458.590
 -25771569.51649 -19989658.90448  20359119.828    20359119.515    20359123.314
 -22680170.18549 -17655561.88647  21324508.400    21324508.460    21324511.897
  -9019723.65349  -7014540.06445  24766153.966    24766153.519    24766156.656
 -12862384.81449  -9207312.70945  23158694.706    23158694.689    23158699.735
 02  1 10  0 44 30.0000000  0  9G20G24G13G11G27G 1G 4G25G 7
 -23232530.04749 -17646797.49747  21435734.428    21435733.620    21435736.727
  -6127543.86149  -4751283.67145  24464411.608    24464412.380    24464415.816
 -24986274.06149 -19437014.94648  20755393.170    20755393.280    20755395.724
  -3188530.01549  -2445731.20445  24555386.459    24555385.690    24555388.316
  -1114723.45749   -850024.52045  24851191.978    24851191.628    24851196.039
 -25753895.52949 -19975886.96648  20362483.135    20362483.066    20362486.246
 -22736556.79949 -17699499.51447  21313778.426    21313778.738    21313781.769
  -8946127.01349  -6957191.99645  24780158.969    24780158.713    24780162.418
 -12791101.74449  -9151767.50046  23172259.638    23172259.579    23172264.195
 02  1 10  0 45  0.0000000  0  9G20G24G13G11G27G 1G 4G25G 7
 -23172947.14949 -17600369.27447  21447072.692    21447071.951    21447075.422
  -6227612.50349  -4829259.20345  24445369.095    24445368.154    24445372.460
 -25038786.14449 -19477933.43448  20745400.453    20745400.538    20745402.980
  -3077453.41649  -2359178.01145  24576523.500    24576523.637    24576526.668
  -1215965.52449   -928914.42445  24831926.083    24831924.836    24831930.446
 -25735758.29749 -19961754.05048  20365934.522    20365934.127    20365937.839
 -22792516.24049 -17743104.26847  21303129.711    21303129.780    21303132.807
  -8872180.14649  -6899571.05645  24794230.573    24794230.851    24794234.404
 -12719514.69149  -9095985.42646  23185882.273    23185881.009    23185887.565
 02  1 10  0 45 30.0000000  0  9G20G24G13G11G27G 1G 4G25G 7
 -23113107.76549 -17553741.19947  21458459.713    21458458.968    21458462.254
  -6327570.61849  -4907148.66345  24426347.673    24426347.372    24426350.770
 -25090844.46049 -19518498.34148  20735494.093    20735494.256    20735496.748
  -2966297.69249  -2272563.15645  24597675.722    24597674.234    24597678.576
  -1317222.12049  -1007815.63745  24812657.440    24812655.886    24812660.987
 -25717158.81349 -19947260.94348  20369473.901    20369473.807    20369477.213
 -22848046.34249 -17786374.47747  21292562.642    21292562.995    21292565.933
  -8797884.63849  -6841678.44845  24808368.547    24808368.374    24808370.484
 -12647626.19149  -9039968.46746  23199562.131    23199561.947    23199566.777
 02  1 10  0 46  0.0000000  0  9G20G24G13G11G27G 1G 4G25G 7
 -23053012.44749 -17506913.69347  21469895.439    21469894.641    21469898.163
  -6427415.82149  -4984950.08745  24407347.713    24407347.245    24407352.167
 -25142448.42249 -19558709.20148  20725674.155    20725674.254    20725676.683
  -2855064.61949  -2185888.03345  24618842.727    24618842.940    24618844.800
  -1418490.64249  -1086726.17045  24793386.646    24793386.636    24793390.479
 -25698098.24849 -19932408.54548  20373101.008    20373100.576    20373104.126
 -22903144.87249 -17829308.39947  21282077.747    21282077.754    21282080.933
  -8723242.60449  -6783515.80545  24822572.481    24822572.331    24822575.593
 -12575439.11849  -8983718.83445  23213298.923    23213298.408    23213303.757
 02  1 10  0 46 30.0000000  0  9G20G24G13G11G27G 1G 4G25G 7
 -22992662.96849 -17459888.14647  21481379.562    21481378.941    21481382.292
  -6527146.93649  -5062662.62945  24388369.533    24388369.573    24388373.184
 -25193598.71849 -19598566.56248  20715940.559    20715940.683    20715943.043
  -2743757.81649  -2099155.46245  24640023.809    24640023.007    24640026.762
  -1519770.32649  -1165645.40045  24774113.989    24774113.008    24774118.190
 -25678579.47549 -19917199.10948  20376815.327    20376815.034    20376818.498
 -22957811.17549 -17871905.52147  21271675.070    21271675.286    21271678.493
  -8648257.83349  -6725086.11745  24836841.774    24836841.223    24836844.511
 -12502957.46649  -8927239.65545  23227091.769    23227090.570    23227096.265
 02  1 10  0 47  0.0000000  0  9G20G24G13G11G27G 1G 4G25G 7
 -22932058.47649 -17412663.87847  21492912.208    21492911.747    21492915.093
  -6626760.85049  -5140283.85545  24369413.705    24369411.777    24369416.172
 -25244293.77849 -19638069.19148  20706293.582    20706293.901    20706296.241
  -2632377.57849  -2012365.65845  24661218.679    24661217.674    24661220.983
  -1621057.60949  -1244570.55945  24754839.639    24754839.651    24754844.311
 -25658602.34449 -19901632.51448  20380616.822    20380616.433    20380620.081
 -23012041.94749 -17914163.27047  21261355.290    21261355.440    21261358.610
  -8572931.05049  -6666389.92945  24851175.900    24851175.889    24851179.346
 -12430182.90549  -8870532.23545  23240940.277    23240939.782    23240945.503
 02  1 10  0 47 30.0000000  0  9G20G24G13G11G27G 1G 4G25G 7
 -22871199.00349 -17365240.93047  21504493.419    21504493.119    21504496.147
  -6726255.13449  -5217811.83545  24350480.371    24350479.374    24350484.655
 -25294532.37849 -19677216.14048  20696733.505    20696733.669    20696735.899
  -2520925.59449  -1925519.94545  24682427.326    24682427.241    24682429.744
  -1722349.58949  -1323499.37545  24735564.510    24735564.135    24735569.406
 -25638167.67649 -19885709.39548  20384505.373    20384504.921    20384508.500
 -23065834.67749 -17956079.68947  21251118.880    21251118.877    21251122.050
  -8497264.08349  -6607428.66845  24865574.747    24865574.351    24865577.772
 -12357117.83749  -8813598.45345  23254844.021    23254843.647    23254849.268
 02  1 10  0 48  0.0000000  0  8G20G24G13G27G 1G 4G25G 7
 -22810087.71449 -17317621.74947  21516122.514    21516121.919    21516125.335
  -6825629.85949  -5295246.68145  24331569.847    24331569.155    24331573.583
 -25344316.45249 -19716008.90348  20687259.901    20687260.078    20687262.380
  -1823646.46349  -1402431.99245  24716288.306    24716288.050    24716293.023
 -25617279.35349 -19869432.77748  20388480.324    20388479.899    20388483.595
 -23119189.97149 -17997655.24147  21240965.629    21240965.685    21240969.191
  -8421261.58749  -6548205.96045  24880037.473    24880037.898    24880039.900
 -12283767.60349  -8756442.44045  23268802.097    23268801.534    23268807.055
 02  1 10  0 48 30.0000000  0  8G20G24G13G27G 1G 4G25G 7
 -22748723.84149 -17269805.75847  21527799.720    21527799.465    21527802.256
  -6924881.82049  -5372585.82645  24312682.841    24312682.020    24312685.698
 -25393644.36349 -19754446.21948  20677873.103    20677873.276    20677875.694
  -1924944.61149  -1481365.60745  24697011.883    24697011.545    24697016.223
 -25595937.54949 -19852802.80248  20392541.514    20392541.158    20392544.528
 -23172104.61649 -18038887.43747  21230896.286    21230896.436    21230899.820
  -8344924.30549  -6488722.35845  24894564.044    24894563.442    24894567.710
 -12210133.74349  -8699065.41445  23282814.050    23282813.773    23282819.124
 02  1 10  0 49  0.0000000  0  8G20G24G13G27G 1G 4G25G 7
 -22687107.27849 -17221792.86847  21539525.058    21539524.737    21539527.379
  -7024008.05649  -5449827.04245  24293819.637    24293819.529    24293821.898
 -25442514.79349 -19792527.05048  20668573.377    20668573.594    20668575.910
  -2026240.96349  -1560297.83745  24677735.817    24677735.699    24677740.270
 -25574142.93149 -19835819.98248  20396688.891    20396688.486    20396691.934
 -23224575.75749 -18079774.04247  21220911.381    21220911.489    21220914.967
  -8268254.07949  -6428979.35045  24909153.755    24909153.562    24909156.988
 -12136218.52349  -8641469.17245  23296879.685    23296879.436    23296885.076
 02  1 10  0 49 30.0000000  0  8G20G24G13G27G 1G 4G25G 7
 -22625237.90649 -17173582.97847  21551298.456    21551297.737    21551300.824
  -7123005.90849  -5526968.22045  24274981.061    24274979.701    24274984.937
 -25490926.38549 -19830250.35548  20659360.973    20659361.032    20659363.531
  -2127532.67849  -1639226.43245  24658460.660    24658459.913    24658464.401
 -25551896.25549 -19818484.91248  20400922.280    20400921.946    20400925.469
 -23276600.92949 -18120313.13847  21211011.319    21211011.442    21211014.903
  -8191252.42049  -6368978.08045  24923806.614    24923806.608    24923809.797
 -12062024.23449  -8583655.47745  23310998.569    23310997.802    23311003.742
 02  1 10  0 50  0.0000000  0  7G20G24G13G27G 1G 4G 7
 -22563115.67249 -17125176.05747  21563119.844    21563119.093    21563122.390
  -7221872.68849  -5604007.21245  24256167.085    24256167.245    24256170.191
 -25538878.61449 -19867615.71048  20650235.931    20650236.099    20650238.327
  -2228816.94149  -1718149.25545  24639187.001    24639186.376    24639190.573
 -25529198.38049 -19800798.25748  20405241.519    20405241.265    20405244.596
 -23328177.75849 -18160502.88147  21201196.616    21201196.897    21201200.210
 -11987553.12649  -8525626.05945  23325169.963    23325169.771    23325174.679
 02  1 10  0 50 30.0000000  0  7G20G24G13G27G 1G 4G 7
 -22500742.15549 -17076573.33147  21574989.083    21574988.326    21574991.726
  -7320606.74149  -5680942.86145  24237378.689    24237377.842    24237382.342
 -25586371.88749 -19904623.43648  20641198.227    20641198.406    20641200.696
  -2330092.39049  -1797065.20545  24619915.036    24619913.738    24619917.613
 -25506051.55449 -19782761.76248  20409646.248    20409645.846    20409649.417
 -23379305.10049 -18200342.36347  21191467.452    21191467.372    21191470.740
 -11912809.18749  -8467384.04045  23339393.288    23339392.885    23339398.367
 02  1 10  0 51  0.0000000  0  7G20G24G13G27G 1G 4G 7
 -22438119.56249 -17027776.52347  21586905.724    21586905.197    21586908.104
  -7419207.85949  -5757774.83545  24218615.473    24218616.111    24218619.410
 -25633407.20649 -19941274.32648  20632247.697    20632247.742    20632250.160
  -2431358.04749  -1875973.51745  24600644.889    24600644.968    24600648.866
 -25482458.66849 -19764377.69448  20414135.777    20414135.448    20414138.930
 -23429982.58149 -18239831.31347  21181823.856    21181824.038    21181827.293
 -11837796.85149  -8408932.88145  23353667.607    23353667.412    23353672.668
 02  1 10  0 51 30.0000000  0  7G20G24G13G27G 1G 4G 7
 -22375247.66249 -16978785.45547  21598869.919    21598869.224    21598872.410
  -7517673.31349  -5834501.18945  24199878.360    24199878.333    24199880.739
 -25679983.35149 -19977567.41648  20623384.524    20623384.618    20623387.141
  -2532610.98649  -1954871.92845  24581377.108    24581377.307    24581381.399
 -25458420.47349 -19745646.63748  20418710.125    20418709.861    20418713.333
 -23480207.48749 -18278967.61147  21172266.422    21172266.715    21172269.750
 -11762518.32749  -8350274.31145  23367992.714    23367991.466    23367997.230
 02  1 10  0 52  0.0000000  0  7G20G24G13G27G 1G 4G 7
 -22312127.28549 -16929600.76147  21610881.387    21610880.948    21610883.818
  -7616001.14149  -5911120.24145  24181167.287    24181168.316    24181171.969
 -25726099.95149 -20013502.40848  20614608.799    20614609.123    20614611.318
  -2633849.37049  -2033758.97345  24562112.023    24562111.444    24562115.458
 -25433938.64949 -19726569.88548  20423368.857    20423368.576    20423372.253
 -23529978.42149 -18317750.15947  21162795.307    21162795.552    21162798.820
 -11686976.81049  -8291410.82245  23382367.813    23382368.373    23382372.920
 02  1 10  0 52 30.0000000  0  7G20G24G13G27G 1G 4G 7
 -22248757.83449 -16880221.98147  21622940.199    21622939.590    21622942.935
  -7714187.97049  -5987629.44245  24162483.021    24162481.052    24162485.996
 -25771755.95949 -20049078.50348  20605920.767    20605920.928    20605923.362
  -2735069.59549  -2112631.88245  24542850.261    24542849.389    24542854.210
 -25409013.50849 -19707147.69448  20428111.936    20428111.683    20428115.211
 -23579292.34149 -18356176.58947  21153411.214    21153411.298    21153414.613
 -11611174.25749  -8232343.89445  23396792.615    23396791.898    23396796.516
 02  1 10  0 53  0.0000000  0  7G20G24G13G27G 1G 4G 7
 -22185139.70649 -16830649.43147  21635046.256    21635045.630    21635049.026
  -7812231.45149  -6064026.94945  24143825.721    24143826.767    24143830.654
 -25816950.56949 -20084295.06248  20597320.501    20597320.632    20597323.083
  -2836269.13049  -2191488.67145  24523592.716    24523592.460    24523596.618
 -25383646.34749 -19687381.07448  20432939.193    20432938.851    20432942.518
 -23628147.11249 -18394245.24847  21144114.386    21144114.434    21144117.930
 -11535113.25249  -8173075.60845  23411266.423    23411266.298    23411272.728
 02  1 10  0 53 30.0000000  0  7G20G24G13G27G 1G 4G 7
 -22121274.16649 -16780884.09647  21647199.426    21647198.736    21647202.124
  -7910130.19049  -6140311.65745  24125196.223    24125194.036    24125199.262
 -25861684.52049 -20119152.67248  20588807.873    20588808.055    20588810.373
  -2937446.27749  -2270328.00245  24504339.280    24504338.439    24504344.102
 -25357839.32749 -19667271.70548  20437850.078    20437849.751    20437853.262
 -23676541.47749 -18431955.14347  21134905.177    21134905.469    21134908.384
 -11458797.26349  -8113608.63245  23425788.883    23425787.914    23425793.988
 02  1 10  0 54  0.0000000  0  7G20G24G13G27G 1G 4G 7
 -22057161.67149 -16730926.32547  21659399.673    21659399.150    21659402.455
  -8007881.67349  -6216481.65545  24106594.695    24106596.351    24106598.848
 -25905956.88349 -20153650.60248  20580383.157    20580383.257    20580385.451
  -3038598.52349  -2349147.94745  24485090.738    24485090.654    24485094.443
 -25331593.60249 -19646820.48748  20442844.473    20442844.084    20442847.660
 -23724473.37149 -18469304.66947  21125784.084    21125784.284    21125787.410
 -11382229.17849  -8053945.19745  23440359.425    23440359.387    23440364.825
 02  1 10  0 54 30.0000000  0  7G20G24G13G27G 1G 4G 7
 -21992803.32549 -16680776.98047  21671646.733    21671646.421    21671649.537
  -8105484.59049  -6292535.81745  24088021.402    24088020.760    24088024.820
 -25949767.81349 -20187788.97448  20572046.124    20572046.179    20572048.688
  -3139724.29449  -2427947.25045  24465847.137    24465847.096    24465851.083
 -25304911.54549 -19626029.27448  20447921.908    20447921.578    20447925.120
 -23771941.83349 -18506293.08847  21116751.220    21116751.507    21116754.446
 -11305412.81149  -7994088.31245  23454977.217    23454977.357    23454981.980
 02  1 10  0 55  0.0000000  0  7G20G24G13G27G 1G 4G 7
 -21928198.03849 -16630435.21947  21683940.809    21683940.430    21683943.597
  -8202934.80649  -6368471.10145  24069477.308    24069476.678    24069480.713
 -25993115.39949 -20221566.30948  20563797.399    20563797.479    20563799.787
  -3240819.53049  -2506722.76345  24446609.264    24446608.605    24446613.008
 -25277792.81149 -19604897.79048  20453082.427    20453082.026    20453085.528
 -23818943.23849 -18542917.56747  21107807.223    21107807.529    21107810.237
 -11228349.18449  -7934038.75945  23469642.057    23469641.465    23469647.403
 02  1 10  0 55 30.0000000  0  7G20G24G13G27G 1G 4G 7
 -21863346.79249 -16579901.80047  21696281.643    21696281.147    21696284.385
  -8300230.69149  -6444286.02045  24050962.401    24050962.395    24050966.115
 -26036000.15249 -20254982.98448  20555636.681    20555636.829    20555638.956
  -3341882.35549  -2585473.03145  24427377.724    24427377.848    24427380.452
 -25250239.39649 -19583427.59048  20458325.663    20458325.216    20458328.844
 -23865476.18049 -18579177.00347  21098952.308    21098952.439    21098955.487
 -11151041.92349  -7873799.35745  23484353.216    23484353.001    23484357.175
 02  1 10  0 56  0.0000000  0  7G20G24G13G27G 1G 4G 7
 -21798249.64149 -16529176.76447  21708669.106    21708668.571    21708672.140
  -8397369.28849  -6519978.46245  24032477.684    24032477.582    24032481.011
 -26078420.90649 -20288038.10848  20547564.264    20547564.407    20547566.636
  -3442909.89949  -2664195.79645  24408152.850    24408152.548    24408156.196
 -25222252.32149 -19561619.48448  20463651.450    20463651.119    20463654.515
 -23911538.08449 -18615069.40147  21090186.999    21090187.227    21090190.249
 -11073493.24149  -7813371.83245  23499110.197    23499109.475    23499115.516
 02  1 10  0 56 30.0000000  0  7G20G24G13G27G 1G 4G 7
 -21732908.10049 -16478261.30147  21721103.112    21721102.224    21721105.554
  -8494349.72949  -6595547.60245  24014022.708    24014022.778    24014026.067
 -26120378.42049 -20320732.26148  20539580.003    20539580.364    20539582.283
  -3543900.48149  -2742889.74945  24388935.007    24388934.382    24388939.478
 -25193833.93149 -19539475.28348  20469059.265    20469058.925    20469062.366
 -23957128.29749 -18650594.24747  21081511.471    21081511.533    21081514.668
 -10995707.14249  -7752759.33145  23513912.364    23513912.567    23513918.205
 02  1 10  0 57  0.0000000  0  7G20G24G13G27G 1G 4G 7
 -21667324.62949 -16427157.31747  21733583.252    21733582.404    21733586.069
  -8591171.42049  -6670993.07045  23995598.211    23995596.844    23995600.390
 -26161874.34049 -20353066.73248  20531683.635    20531683.771    20531685.977
  -3644854.00049  -2821554.83645  24369724.151    24369723.501    24369728.103
 -25164987.76049 -19516997.74648  20474548.519    20474548.005    20474551.731
 -24002246.91649 -18685751.61447  21072925.670    21072925.807    21072928.894
 -10917688.44149  -7691965.57045  23528758.993    23528759.489    23528763.840
 02  1 10  0 57 30.0000000  0  7G20G24G13G27G 1G 4G 7
 -21601497.19449 -16375863.23147  21746109.848    21746109.142    21746112.531
  -8687829.75249  -6746311.25545  23977204.769    23977204.787    23977208.526
 -26202904.78849 -20385038.49748  20523875.777    20523875.796    20523878.206
  -3745765.41849  -2900187.11345  24350521.251    24350520.835    24350525.017
 -25135712.81649 -19494186.09648  20480119.344    20480118.929    20480122.483
 -24046889.51949 -18720538.05147  21064430.458    21064430.618    21064433.860
 -10839437.74549  -7630991.04045  23543649.723    23543649.611    23543654.237
 02  1 10  0 58  0.0000000  0  7G20G24G13G27G 1G 4G 7
 -21535426.97149 -16324379.95647  21758682.619    21758682.138    21758685.015
  -8784322.65549  -6821500.52945  23958842.600    23958841.869    23958845.194
 -26243471.93349 -20416649.25148  20516156.115    20516156.261    20516158.367
  -3846632.91049  -2978785.15945  24331326.816    24331326.533    24331330.314
 -25106010.97849 -19471041.80848  20485771.381    20485770.916    20485774.473
 -24091054.81349 -18754952.57247  21056026.099    21056026.386    21056029.339
 -10760958.19949  -7569838.18545  23558583.860    23558582.633    23558589.119
 02  1 10  0 58 30.0000000  0  7G20G24G13G27G 1G 4G 7
 -21469113.65849 -16272707.27247  21771301.697    21771301.092    21771304.544
  -8880647.39749  -6896558.74945  23940512.624    23940512.528    23940517.838
 -26283574.10149 -20447897.68148  20508524.908    20508525.163    20508527.323
  -3947453.42049  -3057346.60545  24312141.481    24312141.165    24312145.864
 -25075882.95449 -19447565.42648  20491504.537    20491504.147    20491507.713
 -24134740.25849 -18788993.17547  21047713.032    21047713.171    21047716.133
 -10682252.18649  -7508508.85645  23573561.158    23573560.624    23573565.991
 02  1 10  0 59  0.0000000  0  7G20G24G13G27G 1G 4G 7
 -21402558.82149 -16220846.38147  21783966.677    21783965.884    21783969.565
  -8976802.97349  -6971485.19645  23922214.857    23922214.396    23922218.364
 -26323211.87949 -20478784.25448  20500982.082    20500982.445    20500984.679
  -4048225.66849  -3135870.43345  24292965.300    24292965.090    24292969.203
 -25045331.41249 -19423759.03048  20497318.318    20497317.992    20497321.509
 -24177945.18649 -18822659.35647  21039491.382    21039491.483    21039494.604
 -10603323.81249  -7447006.22045  23588580.637    23588579.806    23588585.361
 02  1 10  0 59 30.0000000  0  7G20G24G13G27G 1G 4G 7
 -21335763.21849 -16168797.87247  21796677.505    21796676.365    21796680.267
  -9072786.77649  -7046277.75545  23903949.568    23903948.401    23903953.455
 -26362385.16649 -20509308.87348  20493527.667    20493527.746    20493530.112
  -4148947.27249  -3214354.80845  24273798.633    24273798.399    24273803.734
 -25014358.00349 -19399623.90448  20503212.364    20503211.882    20503215.470
 -24220667.96349 -18855949.83047  21031361.501    21031361.621    21031364.781
 -10524175.96249  -7385332.58945  23603641.955    23603641.079    23603646.369
 02  1 10  1  0  0.0000000  0  7G20G24G13G27G 1G 4G 7
 -21268725.42149 -16116560.65147  21809434.371    21809433.733    21809437.309
  -9168593.96849  -7120932.70745  23885718.004    23885717.992    23885722.687
 -26401091.82849 -20539469.90048  20486162.004    20486162.265    20486164.356
  -4249613.83249  -3292796.29345  24254642.356    24254642.261    24254646.195
 -24982962.34949 -19375159.76248  20509186.775    20509186.296    20509189.928
 -24262904.71849 -18888861.59447  21023324.105    21023324.275    21023327.425
 -10444809.75449  -7323488.82845  23618744.784    23618744.443    23618751.031
 02  1 10  1  0 30.0000000  0  7G20G24G13G27G 1G 4G 7
 -21201449.33349 -16064137.74747  21822236.523    21822236.190    21822239.261
  -9264226.33049  -7195451.41845  23867519.769    23867518.910    23867523.114
 -26439334.82949 -20569269.62448  20478884.629    20478884.713    20478887.056
  -4350226.30949  -3371195.61345  24235496.424    24235495.745    24235500.781
 -24951149.15749 -19350370.25648  20515240.605    20515240.155    20515243.767
 -24304657.09749 -18921395.91647  21015378.869    21015378.936    21015382.035
 -10365231.31249  -7261479.68545  23633888.026    23633887.740    23633893.301
 02  1 10  1  1  0.0000000  0  7G20G24G13G27G 1G 4G 7
 -21133932.21149 -16011527.02447  21835084.641    21835083.946    21835087.362
  -9359678.72549  -7269829.91245  23849355.913    23849354.396    23849359.779
 -26477110.96149 -20598705.55948  20471696.055    20471696.020    20471698.674
  -4450779.27649  -3449548.57345  24216361.726    24216361.252    24216365.647
 -24918916.90249 -19325254.21848  20521374.187    20521373.789    20521377.453
 -24345920.17749 -18953548.97047  21007526.779    21007526.982    21007530.134
 -10285440.66749  -7199305.19245  23649071.810    23649072.138    23649077.580
 02  1 10  1  1 30.0000000  0  7G20G24G13G27G 1G 4G 7
 -21066175.21349 -15958729.38047  21847978.487    21847977.990    21847981.341
  -9454949.34349  -7344066.78745  23831226.450    23831226.245    23831230.200
 -26514420.78149 -20627778.13648  20464596.181    20464596.275    20464598.639
  -4551270.90749  -3527853.73945  24197238.680    24197238.121    24197243.618
 -24886267.74549 -19299813.31548  20527587.125    20527586.717    20527590.431
 -24386693.03949 -18985320.03747  20999767.995    20999768.263    20999771.331
 -10205441.23449  -7136967.96145  23664295.181    23664294.520    23664300.398
 02  1 10  1  2  0.0000000  0  7G20G24G13G27G 1G 4G 7
 -20998180.73449 -15905746.68547  21860917.421    21860917.122    21860919.870
  -9550037.38549  -7418161.34645  23813131.827    23813131.942    23813134.347
 -26551265.70549 -20656488.45848  20457584.830    20457584.939    20457587.359
  -4651700.43749  -3606110.52845  24178127.672    24178127.910    24178131.971
 -24853205.04749 -19274050.17148  20533878.723    20533878.492    20533882.032
 -24426975.56749 -19016709.02447  20992102.529    20992102.720    20992105.790
 -10125237.79449  -7074471.77845  23679557.337    23679556.774    23679562.210
 02  1 10  1  2 30.0000000  0  7G20G24G13G27G 1G 4G 7
 -20929947.57549 -15852578.00147  21873901.768    21873901.163    21873904.858
  -9644938.95249  -7492110.62945  23795072.692    23795072.984    23795076.606
 -26587643.97549 -20684835.14348  20450662.234    20450662.281    20450664.548
  -4752063.87349  -3684315.81845  24159029.242    24159029.332    24159032.199
 -24819728.76549 -19247964.76348  20540249.070    20540248.722    20540252.266
 -24466764.16649 -19047713.12847  20984530.946    20984531.041    20984533.981
 -10044831.52949  -7011817.56345  23694858.177    23694858.361    23694862.774
 02  1 10  1  3  0.0000000  0  7G20G24G13G27G 1G 4G 7
 -20861477.56749 -15799224.76747  21886931.210    21886930.473    21886933.868
  -9739653.11349  -7565913.86145  23777049.208    23777048.982    23777053.977
 -26623556.59149 -20712818.98948  20443828.283    20443828.392    20443830.717
  -4852360.20849  -3762468.80845  24139943.623    24139943.795    24139947.412
 -24785841.70549 -19221559.25848  20546697.560    20546697.437    20546700.777
 -24506058.69749 -19078332.24847  20977053.437    20977053.588    20977056.745
  -9964226.83949  -6949008.72045  23710196.735    23710196.223    23710201.310
 02  1 10  1  3 30.0000000  0  7G20G24G13G27G 1G 4G 7
 -20792770.47549 -15745686.78647  21900005.623    21900004.632    21900008.453
  -9834176.56449  -7639568.50145  23759062.018    23759062.933    23759065.353
 -26659002.82349 -20740439.41648  20437083.063    20437083.362    20437085.669
  -4952586.28149  -3840567.04245  24120871.098    24120870.939    24120875.681
 -24751544.63649 -19194834.26748  20553224.126    20553223.679    20553227.419
 -24544856.62249 -19108564.39947  20969670.407    20969670.659    20969674.019
  -9883425.84649  -6886046.93245  23725572.598    23725572.338    23725578.202
 02  1 10  1  4  0.0000000  0  7G20G24G13G27G 1G 4G 7
 -20723825.34049 -15691963.32847  21913125.392    21913124.689    21913128.469
  -9928505.32149  -7713071.46145  23741112.058    23741111.181    23741115.028
 -26693981.28549 -20767695.35348  20430426.862    20430427.070    20430429.255
  -5052738.14349  -3918607.45945  24101812.871    24101812.862    24101817.102
 -24716837.60249 -19167789.82748  20559828.622    20559828.197    20559831.894
 -24583154.88149 -19138407.20547  20962382.505    20962382.734    20962386.066
  -9802430.16249  -6822933.43445  23740985.736    23740984.758    23740990.443
 02  1 10  1  4 30.0000000  0  7G20G24G13G27G 1G 4G 7
 -20654645.91649 -15638057.30047  21926289.753    21926289.266    21926292.319
 -10022640.36649  -7786423.43545  23723198.751    23723198.641    23723202.448
 -26728494.65749 -20794588.87748  20423859.171    20423859.426    20423861.509
  -5152816.46949  -3996590.58045  24082768.678    24082767.347    24082771.783
 -24681725.29849 -19140429.58748  20566510.280    20566510.001    20566513.483
 -24620954.87349 -19167861.75047  20955189.466    20955189.634    20955192.738
  -9721245.73249  -6759672.86145  23756434.598    23756434.473    23756439.375
 02  1 10  1  5  0.0000000  0  7G20G24G13G27G 1G 4G 7
 -20585230.35949 -15583967.27747  21939499.181    21939498.661    21939501.944
 -10116576.90749  -7859620.74745  23705323.266    23705323.006    23705325.742
 -26762540.58849 -20821118.16748  20417380.496    20417380.881    20417382.826
  -5252816.48649  -4074512.67645  24063739.382    24063737.871    24063743.868
 -24646206.98649 -19112752.97948  20573269.180    20573268.822    20573272.358
 -24658252.53349 -19196924.86747  20948091.984    20948092.078    20948095.427
  -9639873.08549  -6696265.62345  23771919.333    23771918.513    23771923.897
 02  1 10  1  5 30.0000000  0  7G20G24G13G27G 1G 4G 7
 -20515580.11849 -15529694.36947  21952753.166    21952752.516    21952755.231
 -10210313.60949  -7932662.33345  23687485.779    23687484.636    23687490.692
 -26796120.16749 -20847284.06248  20410990.551    20410990.775    20410992.572
  -5352736.73349  -4152372.61045  24044725.187    24044724.314    24044729.111
 -24610285.24449 -19084762.01348  20580104.871    20580104.540    20580108.109
 -24695047.10349 -19225595.96247  20941090.186    20941090.065    20941093.580
  -9558316.19449  -6632714.82345  23787439.057    23787438.619    23787444.922
 02  1 10  1  6  0.0000000  0  7G20G24G13G27G 1G 4G 7
 -20445695.13249 -15475238.55347  21966051.829    21966051.189    21966054.681
 -10303847.60549  -8005545.96145  23669686.514    23669686.587    23669688.502
 -26829232.61549 -20873085.96048  20404689.445    20404689.497    20404691.760
  -5452574.38549  -4230168.18645  24025726.527    24025726.466    24025730.052
 -24573961.21849 -19056457.57548  20587017.091    20587016.645    20587020.195
 -24731336.77149 -19253873.63347  20934184.405    20934184.316    20934187.794
  -9476577.60549  -6569022.43145  23802993.360    23802993.261    23802998.485
 02  1 10  1  6 30.0000000  0  7G20G24G13G27G 1G 4G 7
 -20375576.68149 -15420600.81347  21979394.941    21979394.622    21979397.814
 -10397177.26749  -8078270.36945  23651926.349    23651926.342    23651930.462
 -26861878.13449 -20898524.01748  20398477.189    20398477.318    20398479.508
  -5552327.57849  -4307897.94645  24006744.175    24006744.207    24006748.265
 -24537236.94149 -19027841.25648  20594005.458    20594005.077    20594008.801
 -24767120.12449 -19281756.76947  20927374.991    20927375.280    20927378.268
  -9394660.70549  -6505191.06645  23818581.689    23818581.479    23818586.422
 02  1 10  1  7  0.0000000  0  7G20G24G13G27G 1G 4G 7
 -20305223.74449 -15365780.35647  21992782.716    21992782.484    21992785.349
 -10490298.77949  -8150832.59745  23634205.890    23634205.880    23634209.515
 -26894056.03549 -20923597.69248  20392353.909    20392354.207    20392356.250
  -5651992.46149  -4385558.90345  23987778.554    23987778.167    23987781.785
 -24500112.69349 -18998913.26848  20601069.959    20601069.536    20601073.189
 -24802394.33049 -19309243.16347  20920662.604    20920662.687    20920666.003
  -9312567.24049  -6441222.15645  23834203.600    23834204.084    23834209.057
 02  1 10  1  7 30.0000000  0  7G20G24G13G27G 1G 4G 7
 -20234639.35049 -15310779.55647  22006214.579    22006214.175    22006217.218
 -10583212.12949  -8223232.61445  23616525.166    23616524.870    23616528.947
 -26925768.32349 -20948308.56048  20386319.283    20386319.415    20386321.456
  -5751568.98149  -4463151.01245  23968829.875    23968828.915    23968833.634
 -24462592.47649 -18969676.73648  20608209.844    20608209.394    20608213.058
 -24837160.27849 -19336333.51847  20914046.866    20914046.837    20914050.366
  -9230302.44849  -6377119.73745  23849858.017    23849857.088    23849863.584
 02  1 10  1  8  0.0000000  0  7G20G24G13G27G 1G 4G 7
 -20163822.64749 -15255597.73747  22019690.443    22019689.996    22019693.361
 -10675913.44449  -8295467.40745  23598884.650    23598883.343    23598888.379
 -26957013.52049 -20972655.46048  20380373.500    20380373.841    20380375.673
  -5851053.27649  -4540671.22645  23949898.527    23949897.621    23949902.367
 -24424676.45749 -18940131.78848  20615425.020    20615424.469    20615428.330
 -24871414.86749 -19363025.41447  20907528.471    20907528.869    20907532.010
  -9147867.97049  -6312885.08145  23865544.852    23865544.777    23865550.345
 02  1 10  1  8 30.0000000  0  7G20G24G13G27G 1G 4G 7
 -20092774.25449 -15200235.36847  22033210.513    22033209.706    22033213.067
 -10768400.32849  -8367535.10346  23581285.059    23581285.975    23581288.956
 -26987791.43949 -20996638.24248  20374516.669    20374516.915    20374519.026
  -5950443.03549  -4618117.79045  23930985.201    23930984.254    23930989.208
 -24386366.34449 -18910279.75148  20622715.159    20622714.792    20622718.240
 -24905156.52849 -19389317.61947  20901107.627    20901107.854    20901110.995
  -9065266.77249  -6248520.53445  23881263.470    23881263.795    23881268.781
 02  1 10  1  9  0.0000000  0  7G20G24G13G27G 1G 4G 7
 -20021494.59749 -15144692.79347  22046774.536    22046773.936    22046777.519
 -10860670.88549  -8439434.25846  23563726.674    23563726.352    23563730.601
 -27018102.35649 -21020257.13248  20368748.677    20368748.849    20368751.045
  -6049735.95649  -4695488.88845  23912090.422    23912090.404    23912093.819
 -24347663.81049 -18880121.93348  20630080.004    20630079.703    20630083.234
 -24938384.06949 -19415209.22347  20894784.677    20894784.991    20894788.066
  -8982501.93549  -6184028.46345  23897013.069    23897012.612    23897018.064
 02  1 10  1  9 30.0000000  0  7G20G24G13G27G 1G 4G 7
 -19949985.61449 -15088971.52547  22060382.243    22060381.726    22060385.339
 -10952723.48049  -8511163.53846  23546209.400    23546209.598    23546213.297
 -27047947.91349 -21043513.39748  20363069.245    20363069.460    20363071.533
  -6148930.65349  -4772783.47745  23893214.321    23893214.422    23893218.915
 -24308571.63449 -18849660.49548  20637518.998    20637518.663    20637522.271
 -24971096.66649 -19440699.55447  20888559.695    20888559.771    20888563.100
  -8899577.46549  -6119411.98845  23912793.021    23912792.398    23912797.926
 02  1 10  1 10  0.0000000  0  7G20G24G13G27G 1G 4G 7
 -19878245.61249 -15033070.24247  22074033.883    22074033.345    22074036.826
 -11044553.82749  -8582719.66046  23528734.712    23528734.996    23528738.915
 -27077326.09149 -21066405.46948  20357478.762    20357478.841    20357481.166
  -6248022.86049  -4849998.18445  23874357.855    23874358.046    23874361.398
 -24269089.48149 -18818895.18148  20645032.225    20645031.882    20645035.453
 -25003291.34049 -19465786.31747  20882433.278    20882433.482    20882436.704
  -8816494.51049  -6054672.02045  23928603.153    23928602.073    23928608.527
 02  1 10  1 10 30.0000000  0  7G20G24G13G27G 1G 4G 7
 -19806276.36949 -14976990.33947  22087729.207    22087728.614    22087731.617
 -11136160.44749  -8654101.43746  23511302.351    23511302.814    23511306.449
 -27106237.21549 -21088933.61048  20351977.121    20351977.319    20351979.477
  -6347011.01849  -4927131.80345  23855520.947    23855520.197    23855524.321
 -24229219.91449 -18787827.98948  20652619.180    20652618.879    20652622.479
 -25034967.32249 -19490468.90747  20876405.590    20876405.645    20876408.947
  -8733256.98649  -5989811.59245  23944442.602    23944441.668    23944448.173
 02  1 10  1 11  0.0000000  0  7G20G24G13G27G 1G 4G 7
 -19734078.57449 -14920732.33247  22101468.010    22101467.293    22101471.067
 -11227540.95349  -8725307.02346  23493913.143    23493912.603    23493917.749
 -27134682.20349 -21111098.51948  20346564.194    20346564.237    20346566.617
  -6445892.89749  -5004182.63446  23836704.534    23836704.083    23836708.432
 -24188964.78449 -18756460.34948  20660279.490    20660278.966    20660282.607
 -25066123.37749 -19514746.35347  20870476.759    20870476.710    20870480.237
  -8649867.95049  -5924833.13945  23960310.972    23960310.612    23960316.479
 02  1 10  1 11 30.0000000  0  7G20G24G13G27G 1G 4G 7
 -19661652.00149 -14864296.06747  22115250.394    22115250.251    22115253.406
 -11318692.47049  -8796334.17146  23476567.621    23476567.031    23476572.318
 -27162660.33549 -21132899.65548  20341240.147    20341240.282    20341242.433
  -6544665.41549  -5081148.23446  23817908.819    23817908.595    23817912.291
 -24148325.02349 -18724793.00848  20668012.987    20668012.772    20668016.221
 -25096757.27249 -19538616.92847  20864647.276    20864647.515    20864650.786
  -8566329.84749  -5859738.52045  23976207.816    23976207.467    23976212.666
 02  1 10  1 12  0.0000000  0  7G20G24G13G27G 1G 4G 7
 -19588998.33849 -14807682.84247  22129076.035    22129075.870    22129079.024
 -11409613.73149  -8867181.91146  23459265.870    23459265.978    23459270.463
 -27190172.54749 -21154337.73348  20336004.738    20336004.827    20336007.056
  -6643327.27449  -5158027.59346  23799133.883    23799133.013    23799137.783
 -24107303.37649 -18692828.08448  20675819.157    20675818.679    20675822.395
 -25126868.48349 -19562080.21247  20858917.336    20858917.612    20858920.722
  -8482646.53549  -5794530.75445  23992132.163    23992131.663    23992137.825
 02  1 10  1 12 30.0000000  0  7G20G24G13G27G 1G 4G 7
 -19516117.17049 -14750892.35447  22142944.904    22142944.269    22142947.595
 -11500301.24149  -8937847.50846  23442008.790    23442008.275    23442012.469
 -27217218.19749 -21175412.26248  20330858.126    20330858.320    20330860.427
  -6741875.22449  -5234818.21246  23780380.799    23780381.714    23780384.699
 -24065900.64849 -18660566.21548  20683697.807    20683697.434    20683701.093
 -25156454.86949 -19585134.54447  20853287.275    20853287.509    20853290.443
  -8398819.97149  -5729211.35745  24008083.954    24008084.549    24008089.345
 02  1 10  1 13  0.0000000  0  7G20G24G13G27G 1G 4G 7
 -19443009.75549 -14693925.56047  22156856.774    22156856.527    22156859.434
 -11590753.80349  -9008330.01446  23424796.372    23424795.931    23424800.213
 -27243798.31849 -21196124.03248  20325800.080    20325800.191    20325802.377
  -6840307.72049  -5311518.86146  23761649.876    23761649.692    23761653.958
 -24024119.40049 -18628009.39648  20691648.501    20691648.140    20691651.846
 -25185515.78949 -19607779.41847  20847757.180    20847757.268    20847760.546
  -8314854.25649  -5663783.54445  24024062.112    24024061.089    24024066.979
 02  1 10  1 13 30.0000000  0  7G20G24G13G27G 1G 4G 7
 -19369675.91549 -14636782.33447  22170811.755    22170811.297    22170814.736
 -11680968.01549  -9078626.80846  23407629.114    23407628.886    23407632.724
 -27269911.90849 -21216472.27648  20320830.870    20320830.921    20320833.141
  -6938621.36149  -5388126.88546  23742941.271    23742940.874    23742944.843
 -23981960.28749 -18595158.14248  20699671.123    20699670.766    20699674.371
 -25214048.96649 -19630013.06947  20842327.476    20842327.607    20842330.879
  -8230751.20849  -5598248.69545  24040066.403    24040065.599    24040070.924
 02  1 10  1 14 30.0000000  0  7G20G24G13G27G 1G 4G 7
 -19222350.37249 -14521983.25747  22198846.964    22198846.418    22198849.811
 -11860690.58949  -9218670.35546  23373429.044    23373429.102    23373433.024
 -27320759.90449 -21256094.06948  20311154.778    20311154.910    20311157.041
  -7134901.87449  -5541072.72946  23705590.258    23705589.792    23705593.854
 -23896534.55149 -18528592.64048  20715927.075    20715926.622    20715930.405
 -25269546.07549 -19673257.58147  20831766.760    20831766.908    20831770.062
  -8062164.92049  -5466882.76245  24072147.229    24072147.019    24072152.465
 02  1 10  1 15  0.0000000  0  7G20G24G13G27G 1G 4G 7
 -19148333.24549 -14464307.59847  22212932.057    22212931.298    22212934.720
 -11950166.91849  -9288392.16846  23356402.227    23356401.819    23356406.957
 -27345468.29549 -21275347.36048  20306452.943    20306453.205    20306455.271
  -7232837.16649  -5617385.94846  23686953.717    23686953.613    23686957.209
 -23853244.65249 -18494860.25148  20724164.886    20724164.320    20724168.165
 -25296480.60349 -19694245.53147  20826641.239    20826641.266    20826644.625
  -7977660.72049  -5401035.34445  24088227.847    24088227.527    24088232.567
 02  1 10  1 15 30.0000000  0  7G20G24G13G27G 1G 4G 7
 -19074095.96549 -14406460.39446  22227058.948    22227058.268    22227061.820
 -12039398.90649  -9357923.58946  23339421.923    23339421.605    23339426.829
 -27369714.93149 -21294240.83048  20301838.962    20301839.249    20301841.272
  -7330647.78549  -5693602.02246  23668341.027    23668340.369    23668344.805
 -23809587.71249 -18460841.85448  20732472.533    20732472.168    20732475.781
 -25322885.86549 -19714821.06447  20821616.457    20821616.685    20821619.728
  -7893035.21249  -5335093.40245  24104331.458    24104331.029    24104337.016
 02  1 10  1 16  0.0000000  0  7G20G24G13G27G 1G 4G 7
 -18999637.99549 -14348441.21946  22241227.759    22241227.059    22241230.915
 -12128383.45649  -9427262.20346  23322488.679    23322488.247    23322492.350
 -27393499.05249 -21312773.90248  20297312.999    20297313.252    20297315.272
  -7428330.44949  -5769718.35346  23649752.567    23649752.367    23649757.147
 -23765564.44549 -18426538.01048  20740849.855    20740849.359    20740853.163
 -25348759.70149 -19734982.50247  20816692.877    20816693.073    20816696.191
  -7808290.32849  -5269058.46445  24120458.016    24120457.435    24120463.737
 02  1 10  1 16 30.0000000  0  7G20G24G13G27G 1G 4G 7
 -18924958.71749 -14290249.60646  22255438.728    22255437.671    22255441.842
 -12217116.76749  -9496405.03546  23305603.270    23305602.557    23305606.403
 -27416819.71549 -21330945.83848  20292875.218    20292875.545    20292877.522
  -7525881.56949  -5845732.21746  23631189.114    23631189.098    23631192.753
 -23721175.24249 -18391949.02548  20749296.797    20749296.461    20749299.908
 -25374099.56349 -19754727.85647  20811870.849    20811871.091    20811874.161
  -7723427.83549  -5202931.86545  24136606.796    24136606.145    24136610.926
 02  1 10  1 17  0.0000000  0  7G20G24G13G27G 1G 4G 7
 -18850056.30349 -14231884.10646  22269692.118    22269690.944    22269695.399
 -12305593.90949  -9565348.26346  23288766.749    23288766.003    23288770.197
 -27439674.56749 -21348754.80648  20288526.091    20288526.216    20288528.194
  -7623296.04449  -5921639.59046  23612651.857    23612652.361    23612655.969
 -23676419.26849 -18357074.23948  20757813.573    20757813.085    20757816.812
 -25398901.67649 -19774054.18047  20807151.200    20807151.309    20807154.358
  -7638448.17149  -5136713.95845  24152777.958    24152779.019    24152782.897
 02  1 10  1 17 30.0000000  0  7G20G24G13G27G 1G 4G 7
 -18774934.29949 -14173347.50146  22283987.407    22283987.297    22283990.724
 -12393815.72249  -9634092.53246  23271978.641    23271978.285    23271982.941
 -27462067.10849 -21366203.53148  20284264.947    20284265.205    20284267.263
  -7720574.69249  -5997441.13246  23594140.381    23594139.907    23594144.401
 -23631301.21049 -18321917.31348  20766399.247    20766398.961    20766402.626
 -25423167.81549 -19792962.87047  20802533.467    20802533.666    20802536.729
  -7553357.15949  -5070409.27945  24168970.213    24168970.390    24168975.108
 02  1 10  1 18  0.0000000  0  7G20G24G13G27G 1G 4G 7
 -18699591.39649 -14114638.75746  22298324.712    22298324.391    22298327.425
 -12481777.19549  -9702633.93246  23255240.041    23255239.852    23255243.904
 -27483995.68149 -21383290.72448  20280092.031    20280092.184    20280094.121
  -7817713.16049  -6073133.43846  23575655.509    23575655.333    23575659.355
 -23585820.76349 -18286478.00648  20775053.958    20775053.640    20775057.305
 -25446894.68249 -19811451.34247  20798018.383    20798018.401    20798021.595
  -7468156.05849  -5004018.83245  24185183.490    24185182.986    24185189.525
 02  1 10  1 18 30.0000000  0  7G20G24G13G27G 1G 4G 7
 -18624028.14849 -14055758.32546  22312703.975    22312703.547    22312706.891
 -12569476.53849  -9770971.07246  23238551.299    23238552.025    23238555.256
 -27505460.46149 -21400016.52048  20276007.452    20276007.752    20276009.572
  -7914709.21449  -6148714.76546  23557197.707    23557198.311    23557201.600
 -23539979.99049 -18250757.91948  20783777.122    20783776.851    20783780.372
 -25470081.43449 -19829518.94247  20793606.042    20793606.086    20793609.406
  -7382848.01049  -4937545.02945  24201417.062    24201415.908    24201422.108
 02  1 10  1 19  0.0000000  0  7G20G24G13G27G 1G 4G 7
 -18548245.10749 -13996706.63846  22327124.959    22327124.373    22327127.877
 -12656911.14549  -9839101.93846  23221913.124    23221913.064    23221916.966
 -27526461.87449 -21416381.25348  20272010.986    20272011.099    20272013.161
  -8011560.34049  -6224183.16546  23538767.367    23538766.891    23538771.094
 -23493780.48849 -18214758.31548  20792568.670    20792568.324    20792571.888
 -25492726.35049 -19847164.34147  20789296.856    20789297.109    20789300.153
  -7297435.66549  -4870989.95445  24217670.393    24217670.685    24217675.445
 02  1 10  1 19 30.0000000  0  7G20G24G13G27G 1G 4G 7
 -18472242.93649 -13937484.19546  22341587.635    22341587.441    22341590.862
 -12744078.60049  -9907024.61046  23205325.642    23205324.798    23205329.915
 -27547000.44449 -21432385.32648  20268102.583    20268102.674    20268104.882
  -8108264.31149  -6299536.90446  23520365.379    23520365.180    23520369.492
 -23447224.05349 -18178480.56748  20801428.045    20801427.791    20801431.204
 -25514828.75649 -19864386.99747  20785090.929    20785090.961    20785094.286
  -7211922.24849  -4804356.12745  24233943.084    24233942.551    24233949.579
 02  1 10  1 20  0.0000000  0  7G20G24G13G27G 1G 4G 7
 -18396022.59249 -13878091.74346  22356091.984    22356091.310    22356095.028
 -12830976.59249  -9974737.33346  23188789.504    23188789.145    23188793.595
 -27567076.43349 -21448028.94848  20264282.286    20264282.479    20264284.408
  -8204818.91849  -6374774.24746  23501991.786    23501991.710    23501995.766
 -23400312.48949 -18141926.10548  20810355.018    20810354.681    20810358.172
 -25536387.69149 -19881186.17547  20780988.404    20780988.511    20780991.769
  -7126310.92749  -4737646.03145  24250234.364    24250234.622    24250239.792
 02  1 10  1 20 30.0000000  0  7G20G24G13G27G 1G 4G 7
 -18319584.35549 -13818529.49646  22370637.751    22370637.180    22370640.986
 -12917602.55449 -10042238.08446  23172305.178    23172304.847    23172308.960
 -27586689.87849 -21463312.14348  20260549.980    20260550.063    20260551.966
  -8301221.62049  -6449893.21846  23483646.969    23483646.360    23483651.244
 -23353047.42349 -18105096.17948  20819349.298    20819348.995    20819352.503
 -25557401.59149 -19897560.64347  20776989.567    20776989.819    20776992.851
  -7040604.46649  -4670861.78445  24266543.699    24266543.182    24266548.632
 02  1 10  1 21  0.0000000  0  7G20G24G13G27G 1G 4G 7
 -18242928.58449 -13758797.74946  22385224.962    22385224.631    22385227.869
 -13003953.82449 -10109524.77546  23155873.140    23155872.803    23155878.066
 -27605840.88249 -21478235.00048  20256905.696    20256905.996    20256907.890
  -8397469.54349  -6524891.59746  23465331.601    23465331.409    23465336.278
 -23305430.24249 -18067991.88348  20828410.573    20828410.252    20828413.795
 -25577868.99549 -19913509.27747  20773094.808    20773095.096    20773098.079
  -6954805.33849  -4604005.32645  24282870.778    24282869.999    24282876.772
 02  1 10  1 21 30.0000000  0  7G20G24G13G27G 1G 4G 7
 -18166056.94049 -13698897.78346  22399853.076    22399852.345    22399856.008
 -13090029.03549 -10176596.36746  23139493.612    23139493.132    23139497.644
 -27624531.14049 -21492798.82848  20253349.046    20253349.138    20253351.313
  -8493561.61349  -6599768.52246  23447045.898    23447045.568    23447049.527
 -23257463.96349 -18030615.55848  20837538.203    20837537.553    20837541.583
 -25597790.06349 -19929032.19047  20769304.019    20769304.280    20769307.403
  -6868917.85749  -4537080.03245  24299214.641    24299213.664    24299220.904
 02  1 10  1 22  0.0000000  0  7G20G24G13G27G 1G 4G 7
 -18088968.16649 -13638828.63546  22414522.559    22414521.730    22414525.673
 -13175823.74149 -10243449.38846  23123167.357    23123167.904    23123171.944
 -27642758.91649 -21507002.28548  20249880.425    20249880.569    20249882.546
  -8589493.33649  -6674520.50846  23428790.641    23428790.006    23428795.190
 -23209148.22549 -17992966.93248  20846732.318    20846731.858    20846735.481
 -25617161.72049 -19944126.99348  20765617.708    20765617.942    20765621.117
  -6782942.95749  -4470086.59145  24315575.051    24315574.988    24315580.753
 02  1 10  1 22 30.0000000  0  6G20G24G13G27G 1G 4
 -18011660.46649 -13578588.90246  22429233.623    22429233.055    22429236.756
 -13261333.63249 -10310080.47046  23106895.503    23106895.829    23106899.467
 -27660522.54349 -21520844.06748  20246500.110    20246500.230    20246502.093
  -8685260.10849  -6749143.95846  23410566.812    23410566.642    23410570.567
 -23160482.42649 -17955045.53348  20855993.082    20855992.627    20855996.609
 -25635980.57249 -19958791.04048  20762036.592    20762036.891    20762039.875
 02  1 10  1 23  0.0000000  0  6G20G24G13G27G 1G 4
 -17934134.99549 -13518179.46846  22443986.242    22443985.572    22443989.451
 -13346556.35049 -10376487.77646  23090678.303    23090677.567    23090682.519
 -27677822.88749 -21534324.84848  20243207.984    20243208.179    20243210.188
  -8780860.19749  -6823637.52246  23392374.761    23392374.006    23392378.269
 -23111468.70849 -17916853.02748  20865320.086    20865319.620    20865323.636
 -25654246.32449 -19973024.10148  20758560.793    20758561.067    20758563.989
 02  1 10  1 23 30.0000000  0  6G20G24G13G27G 1G 4
 -17856397.67949 -13457604.96546  22458779.095    22458778.471    22458782.528
 -13431495.10749 -10442673.81546  23074514.930    23074515.186    23074518.547
 -27694665.23749 -21547448.74548  20240002.924    20240002.948    20240005.097
  -8876296.48849  -6898003.44546  23374213.765    23374213.509    23374218.193
 -23062114.16149 -17878394.93848  20874711.939    20874711.368    20874715.373
 -25671963.05149 -19986829.34948  20755189.454    20755189.781    20755192.796
 02  1 10  1 24  0.0000000  0  6G20G24G13G27G 1G 4
 -17778447.45549 -13396864.54446  22473612.611    22473611.812    22473615.784
 -13516145.72349 -10508635.32746  23058406.412    23058405.598    23058410.728
 -27711048.75749 -21560215.11648  20236885.310    20236885.316    20236887.312
  -8971565.00449  -6972238.63146  23356084.651    23356083.890    23356088.138
 -23012418.98949 -17839671.42648  20884168.567    20884167.931    20884171.951
 -25689127.98049 -20000204.62148  20751923.117    20751923.153    20751926.483
 02  1 10  1 24 30.0000000  0  6G20G24G13G27G 1G 4
 -17700284.52749 -13335958.39046  22488486.480    22488485.655    22488489.801
 -13600505.32149 -10574370.07846  23042353.418    23042353.121    23042357.496
 -27726973.57749 -21572624.06248  20233854.909    20233855.194    20233857.007
  -9066662.84049  -7046340.83246  23337988.051    23337987.218    23337992.222
 -22962384.43649 -17800683.47048  20893689.820    20893689.310    20893693.236
 -25705739.92449 -20013149.00748  20748761.989    20748762.231    20748765.222
 02  1 10  1 25  0.0000000  0  6G20G24G13G27G 1G 4
 -17621908.65349 -13274886.30446  22503400.861    22503401.020    22503404.194
 -13684570.27949 -10639875.23246  23026356.396    23026356.735    23026360.689
 -27742439.03649 -21584675.06048  20230911.929    20230912.011    20230914.079
  -9161586.69149  -7120307.46446  23319924.569    23319924.542    23319929.345
 -22912011.37749 -17761431.73848  20903275.494    20903275.234    20903278.567
 -25721796.79949 -20025660.86548  20745706.473    20745706.506    20745709.649
 02  1 10  1 25 30.0000000  0  6G20G24G13G27G 1G 4
 -17543323.47749 -13213651.13646  22518355.235    22518354.607    22518358.326
 -13768341.33149 -10705151.37146  23010415.376    23010415.091    23010420.104
 -27757448.83949 -21596371.00048  20228055.624    20228055.708    20228057.705
  -9256337.37549  -7194139.14546  23301894.101    23301893.855    23301897.994
 -22861304.61649 -17721919.97548  20912924.739    20912924.594    20912928.160
 -25737301.01349 -20037742.08048  20742756.146    20742756.309    20742759.391
 02  1 10  1 26  0.0000000  0  6G20G24G13G27G 1G 4
 -17464525.20549 -13152249.90246  22533350.155    22533350.136    22533353.183
 -13851811.65349 -10770193.16546  22994531.390    22994530.888    22994534.722
 -27771998.98849 -21607708.77548  20225286.780    20225286.765    20225288.902
  -9350908.05049  -7267830.56646  23283897.880    23283897.793    23283902.491
 -22810261.52949 -17682146.14348  20922637.986    20922637.719    20922641.305
 -25752247.00349 -20049388.31448  20739912.054    20739912.148    20739915.254
 02  1 10  1 26 30.0000000  0  6G20G24G13G27G 1G 4
 -17385517.50549 -13090685.47546  22548385.095    22548385.328    22548388.248
 -13934981.94449 -10835001.18346  22978704.539    22978704.034    22978708.946
 -27786092.79249 -21618690.95748  20222604.787    20222604.852    20222607.029
  -9445299.47849  -7341382.32146  23265936.001    23265935.728    23265939.560
 -22758887.03849 -17642114.07748  20932414.202    20932413.861    20932417.453
 -25766636.89549 -20060601.22948  20737173.735    20737173.693    20737176.975
 02  1 10  1 27  0.0000000  0  6G20G24G13G27G 1G 4
 -17306299.22849 -13028956.97346  22563460.049    22563459.582    22563462.280
 -14017848.11649 -10899572.22446  22962935.571    22962935.491    22962939.474
 -27799729.14949 -21629316.67748  20220009.871    20220010.028    20220012.072
  -9539507.51249  -7414791.16546  23248008.755    23248007.899    23248012.807
 -22707180.96949 -17601823.63648  20942253.579    20942253.410    20942256.820
 -25780468.07149 -20071378.77748  20734541.689    20734541.845    20734544.863
 02  1 10  1 27 30.0000000  0  6G20G24G13G27G 1G 4
 -17226871.24949 -12967065.06646  22578574.756    22578574.398    22578577.794
 -14100407.67449 -10963904.34346  22947225.033    22947224.657    22947227.954
 -27812908.78649 -21639586.51948  20217501.857    20217501.905    20217503.998
  -9633530.03649  -7488055.46546  23230116.708    23230116.195    23230120.706
 -22655145.41949 -17561276.45448  20952155.658    20952155.285    20952158.853
 -25793739.75249 -20081720.35748  20732016.175    20732016.364    20732019.445
 02  1 10  1 28  0.0000000  0  6G20G24G13G27G 1G 4
 -17147234.75049 -12905010.66946  22593729.017    22593728.397    22593732.092
 -14182659.03049 -11027996.30346  22931573.196    22931573.422    22931577.132
 -27825632.93449 -21649501.43248  20215080.556    20215080.571    20215082.691
  -9727365.19549  -7561173.76246  23212260.357    23212259.807    23212264.996
 -22602782.55449 -17520474.22148  20962120.015    20962119.607    20962122.966
 -25806451.78749 -20091625.84748  20729597.110    20729597.308    20729600.686
 02  1 10  1 28 30.0000000  0  6G20G24G13G27G 1G 4
 -17067388.12649 -12842792.53846  22608923.355    22608922.868    22608925.500
 -14264597.67349 -11091844.60346  22915980.776    22915981.156    22915985.231
 -27837899.68449 -21659059.92348  20212746.272    20212746.417    20212748.392
  -9821008.51349  -7634142.57546  23194440.582    23194440.293    23194444.714
 -22550091.97049 -17479416.62248  20972146.675    20972146.075    20972149.866
 -25818601.26249 -20101092.97848  20727285.181    20727285.549    20727288.404
 02  1 10  1 29  0.0000000  0  6G20G24G13G27G 1G 4
 -16987335.90249 -12780414.20446  22624156.887    22624156.223    22624159.536
 -14346224.73949 -11155450.10046  22900447.653    22900446.751    22900451.313
 -27849713.74949 -21668265.67948  20210498.112    20210498.153    20210500.256
  -9914461.38549  -7706962.98246  23176657.120    23176657.324    23176661.137
 -22497079.09449 -17438107.88748  20982234.637    20982234.241    20982237.667
 -25830191.10249 -20110124.03348  20725079.667    20725079.736    20725082.947
 02  1 10  1 29 30.0000000  0  6G20G24G13G27G 1G 4
 -16907075.46549 -12717873.62646  22639430.028    22639429.839    22639432.613
 -14427534.49749 -11218808.34746  22884974.935    22884974.642    22884979.469
 -27861072.38549 -21677116.56548  20208336.587    20208336.710    20208338.604
 -10007718.15249  -7779630.57946  23158911.009    23158910.960    23158915.040
 -22443742.32249 -17396546.76547  20992384.239    20992383.835    20992387.454
 -25841217.03249 -20118715.67248  20722981.481    20722981.578    20722984.940
 02  1 10  1 30  0.0000000  0  6G20G24G13G27G 1G 4
 -16826609.32849 -12655172.77246  22654742.200    22654740.929    22654744.541
 -14508526.58949 -11281919.06846  22869562.640    22869562.941    22869566.070
 -27871977.88249 -21685614.35148  20206261.390    20206261.426    20206263.590
 -10100778.66149  -7852145.25146  23141202.218    23141202.309    23141206.791
 -22390085.65649 -17354736.37547  21002594.738    21002594.197    21002597.993
 -25851680.65449 -20126869.15348  20720990.302    20720990.687    20720993.650
 02  1 10  1 30 30.0000000  0  6G20G24G13G27G 1G 4
 -16745936.32149 -12592310.72046  22670093.634    22670092.701    22670096.904
 -14589196.49349 -11344778.73346  22854211.678    22854211.109    22854215.429
 -27882428.97149 -21693758.05348  20204272.568    20204272.873    20204274.701
 -10193638.67749  -7924503.70646  23123531.656    23123530.893    23123535.782
 -22336109.09549 -17312676.72347  21012866.094    21012865.716    21012869.277
 -25861579.00349 -20134582.16048  20719106.725    20719106.911    20719110.092
 02  1 10  1 31  0.0000000  0  6G20G24G13G27G 1G 4
 -16665058.61949 -12529289.16646  22685483.982    22685483.447    22685486.681
 -14669543.55149 -11407386.82746  22838922.067    22838921.933    22838926.151
 -27892427.74849 -21701549.29948  20202369.895    20202369.970    20202371.991
 -10286297.19149  -7996705.13346  23105899.312    23105898.929    23105903.054
 -22281815.71449 -17270370.19447  21023197.775    21023197.433    21023201.202
 -25870912.79449 -20141855.25248  20717330.580    20717330.640    20717333.830
 02  1 10  1 31 30.0000000  0  6G20G24G13G27G 1G 4
 -16583975.99149 -12466107.91446  22700913.460    22700912.235    22700916.491
 -14749564.66549 -11469740.93546  22823694.574    22823694.125    22823699.102
 -27901974.10849 -21708988.01648  20200553.255    20200553.438    20200555.585
 -10378751.35149  -8068747.33046  23088305.921    23088306.538    23088310.143
 -22227206.53949 -17227817.59747  21033589.583    21033589.259    21033592.849
 -25879680.90049 -20148687.55248  20715662.087    20715662.325    20715665.432
 02  1 10  1 32  0.0000000  0  6G20G24G13G27G 1G 4
 -16502689.42949 -12402767.75746  22716381.820    22716381.316    22716384.081
 -14829257.63649 -11531839.35646  22808529.394    22808529.334    22808534.026
 -27911068.94549 -21716074.90148  20198822.561    20198822.826    20198824.737
 -10470999.04949  -8140628.65146  23070751.850    23070751.861    23070755.689
 -22172283.57449 -17185020.48747  21044041.044    21044040.744    21044044.524
 -25887882.68049 -20155078.55848  20714101.367    20714101.486    20714104.584
 02  1 10  1 32 30.0000000  0  6G20G24G13G27G 1G 4
 -16421198.87149 -12339268.64546  22731888.910    22731888.201    22731891.380
 -14908619.18949 -11593679.52846  22793427.352    22793427.469    22793431.531
 -27919712.24949 -21722809.93248  20197177.760    20197178.105    20197179.931
 -10563037.14149  -8212346.63246  23053237.610    23053237.026    23053241.543
 -22117047.92849 -17141979.72747  21054552.068    21054551.827    21054555.211
 -25895516.71249 -20161027.16148  20712648.630    20712648.782    20712651.988
 02  1 10  1 33  0.0000000  0  6G20G24G13G27G 1G 4
 -16339505.85749 -12275611.78046  22747434.460    22747433.489    22747438.128
 -14987647.98849 -11655260.41046  22778388.781    22778388.680    22778393.403
 -27927905.45449 -21729194.24448  20195618.662    20195618.854    20195620.718
 -10654864.06849  -8283900.07246  23035763.351    23035762.543    23035767.690
 -22061502.04049 -17098697.22347  21065122.182    21065122.029    21065125.383
 -25902583.28249 -20166533.58848  20711303.906    20711304.212    20711307.367
 02  1 10  1 33 30.0000000  0  6G20G24G13G27G 1G 4
 -16257610.78749 -12211797.48046  22763018.595    22763017.841    22763021.528
 -15066340.95849 -11716579.61346  22763414.174    22763414.046    22763418.066
 -27935649.15149 -21735228.28948  20194145.091    20194145.404    20194147.330
 -10746477.49949  -8355287.15246  23018329.860    23018329.462    23018334.233
 -22005647.60149 -17055174.28847  21075750.968    21075750.631    21075754.258
 -25909081.57049 -20171597.20348  20710067.344    20710067.629    20710070.627
 02  1 10  1 34  0.0000000  0  6G20G24G13G27G 1G 4
 -16175513.95549 -12147825.94546  22778641.162    22778641.225    22778645.214
 -15144695.58249 -11777635.16746  22748503.895    22748503.269    22748507.420
 -27942943.42249 -21740912.13748  20192757.050    20192757.605    20192759.279
 -10837874.57149  -8426505.65246  23000937.628    23000937.482    23000942.334
 -21949485.87249 -17011411.90947  21086438.164    21086438.233    21086441.419
 -25915010.40849 -20176217.08748  20708939.125    20708939.390    20708942.420
 02  1 10  1 34 30.0000000  0  6G20G24G13G27G 1G 4
 -16093218.87349 -12083699.93946  22794301.498    22794301.304    22794304.259
 -15222712.45549 -11838427.53246  22733657.694    22733657.936    22733661.584
 -27949791.70849 -21746248.45248  20191453.889    20191454.137    20191455.920
 -10929055.84349  -8497555.98046  22983586.394    22983585.795    22983590.256
 -21893021.48649 -16967413.68147  21097183.040    21097182.674    21097186.239
 -25920372.25949 -20180395.15948  20707918.821    20707919.106    20707922.283
 02  1 10  1 35  0.0000000  0  6G20G24G13G27G 1G 4
 -16010721.51049 -12019416.29746  22810000.335    22810000.865    22810003.539
 -15300384.30849 -11898951.05646  22718877.204    22718876.729    22718880.589
 -27956190.19849 -21751234.28248  20190236.328    20190236.500    20190238.299
 -11020014.51049  -8568432.85346  22966277.495    22966277.367    22966281.375
 -21836251.53549 -16923177.35947  21107986.025    21107985.845    21107989.372
 -25925161.87749 -20184127.33948  20707007.422    20707007.587    20707010.862
 02  1 10  1 35 30.0000000  0  6G20G24G13G27G 1G 4
 -15928023.91249 -11954976.63446  22825737.144    22825736.431    22825740.182
 -15377710.08349 -11959204.89946  22704162.508    22704162.465    22704166.263
 -27962141.07449 -21755871.32148  20189103.887    20189103.914    20189105.781
 -11110749.60549  -8639135.51246  22949011.188    22949011.300    22949014.641
 -21779179.23549 -16878705.43947  21118846.548    21118846.127    21118849.713
 -25929380.14249 -20187414.30748  20706204.739    20706204.953    20706208.531
 02  1 10  1 36  0.0000000  0  6G20G24G13G27G 1G 4
 -15845128.13049 -11890382.54046  22841511.756    22841511.061    22841514.904
 -15454688.60449 -12019188.16846  22689513.932    22689513.197    22689517.629
 -27967646.21949 -21760161.03748  20188056.278    20188056.439    20188058.355
 -11201259.91149  -8709663.02346  22931787.728    22931787.474    22931791.880
 -21721807.42249 -16834000.13147  21129763.954    21129763.369    21129767.188
 -25933027.46149 -20190256.38448  20705510.670    20705510.693    20705513.993
 02  1 10  1 36 30.0000000  0  6G20G24G13G27G 1G 4
 -15762033.86249 -11825633.78446  22857324.097    22857323.464    22857327.518
 -15531317.10049 -12078898.67946  22674931.993    22674931.771    22674936.561
 -27972705.39449 -21764103.24748  20187093.556    20187093.776    20187095.533
 -11291542.70049  -8780013.22946  22914607.326    22914606.848    22914612.176
 -21664137.17849 -16789062.28347  21140738.246    21140737.692    21140741.603
 -25936102.95449 -20192652.88548  20704925.414    20704925.678    20704928.608
 02  1 10  1 37  0.0000000  0  6G20G24G13G27G 1G 4
 -15678741.67549 -11760730.82046  22873174.112    22873173.012    22873177.889
 -15607592.81349 -12138334.30946  22660417.167    22660417.559    22660420.968
 -27977319.21949 -21767698.43148  20186215.564    20186215.594    20186217.624
 -11381595.27849  -8850184.05946  22897470.810    22897470.651    22897475.780
 -21606170.02249 -16743893.07647  21151768.974    21151768.495    21151772.248
 -25938605.82549 -20194603.18348  20704449.180    20704449.428    20704452.539
 02  1 10  1 37 30.0000000  0  6G20G24G13G27G 1G 4
 -15595253.27149 -11695674.96546  22889061.413    22889059.884    22889065.542
 -15683513.89649 -12197493.58946  22645970.001    22645969.452    22645973.887
 -27981489.53149 -21770948.02248  20185421.963    20185422.253    20185424.233
 -11471416.49049  -8920174.60646  22880378.486    22880378.374    22880382.369
 -21547908.84449 -16698494.76347  21162855.645    21162855.450    21162858.973
 -25940536.63849 -20196107.72448  20704081.771    20704081.792    20704085.129
 02  1 10  1 38  0.0000000  0  6G20G24G13G27G 1G 4
 -15511568.52849 -11630466.09546  22904986.141    22904985.848    22904990.300
 -15759077.46149 -12256374.29046  22631590.724    22631590.236    22631594.368
 -27985216.21149 -21773851.92048  20184712.831    20184713.004    20184714.821
 -11561003.16249  -8989982.40046  22863330.760    22863330.765    22863335.013
 -21489354.37949 -16652867.91247  21173998.226    21173997.956    21174001.353
 -25941893.89549 -20197165.33948  20703823.440    20703823.551    20703826.943
 02  1 10  1 38 30.0000000  0  6G20G24G13G27G 1G 4
 -15427688.10349 -11565104.74546  22920948.125    22920947.488    22920951.187
 -15834281.05149 -12314974.48746  22617279.968    22617279.733    22617284.019
 -27988500.10349 -21776410.79348  20184087.926    20184088.027    20184089.911
 -11650353.07449  -9059605.70246  22846327.962    22846327.886    22846331.985
 -21430508.47149 -16607013.96247  21185196.253    21185195.834    21185199.681
 -25942677.68749 -20197776.09748  20703674.309    20703674.524    20703677.601
 02  1 10  1 39  0.0000000  0  6G20G24G13G27G 1G 4
 -15343613.35749 -11499591.95846  22936946.891    22936945.733    22936949.871
 -15909122.92049 -12373292.82846  22603037.984    22603037.703    22603042.677
 -27991342.54949 -21778625.68248  20183547.012    20183547.291    20183549.049
 -11739464.61249  -9129043.25446  22829370.637    22829370.785    22829374.502
 -21371373.44349 -16560934.72447  21196449.331    21196449.114    21196452.428
 -25942887.86249 -20197939.87748  20703634.369    20703634.472    20703637.709
 02  1 10  1 39 30.0000000  0  6G20G24G13G27G 1G 4
 -15259343.88249 -11433927.48346  22952982.676    22952982.321    22952986.246
 -15983599.88949 -12431326.83246  22588865.569    22588865.254    22588869.925
 -27993743.04949 -21780496.19048  20183090.227    20183090.317    20183092.190
 -11828334.51749  -9198292.52546  22812459.301    22812459.343    22812463.415
 -21311950.14749 -16514630.86347  21207757.193    21207756.686    21207760.552
 -25942523.27849 -20197655.79848  20703703.699    20703703.844    20703706.892
 02  1 10  1 40  0.0000000  0  6G20G24G13G27G 1G 4
 -15174880.30949 -11368111.73246  22969055.498    22969055.574    22969058.658
 -16057709.56849 -12489074.63346  22574763.041    22574763.167    22574767.210
 -27995702.93249 -21782023.37148  20182717.276    20182717.555    20182719.239
 -11916960.48349  -9267351.71246  22795594.413    22795594.488    22795598.150
 -21252240.39949 -16468103.79547  21219119.553    21219119.269    21219122.936
 -25941583.58749 -20196923.58348  20703882.504    20703882.730    20703885.894
 02  1 10  1 40 30.0000000  0  6G20G24G13G27G 1G 4
 -15090224.71449 -11302146.35946  22985165.041    22985165.011    22985168.024
 -16131450.51349 -12546535.09446  22560730.618    22560729.822    22560734.364
 -27997223.83749 -21783208.48648  20182427.841    20182427.896    20182429.833
 -12005341.29549  -9336219.87146  22778776.090    22778776.221    22778779.867
 -21192246.78749 -16421355.53047  21230536.026    21230535.756    21230539.204
 -25940069.31749 -20195743.64348  20704170.735    20704170.951    20704174.122
 02  1 10  1 41  0.0000000  0  6G20G24G13G27G 1G 4
 -15005376.42849 -11236030.83546  23001311.203    23001310.724    23001314.474
 -16204819.38949 -12603705.65546  22546768.989    22546768.607    22546773.145
 -27998305.30249 -21784051.18348  20182222.055    20182222.178    20182224.024
 -12093473.52849  -9404894.33046  22762005.139    22762004.962    22762009.532
 -21131970.01049 -16374386.61847  21242006.340    21242005.995    21242009.616
 -25937979.16049 -20194114.96248  20704568.498    20704568.655    20704571.772
 02  1 10  1 41 30.0000000  0  6G20G24G13G27G 1G 4
 -14920336.67549 -11169766.11746  23017493.709    23017493.461    23017497.144
 -16277814.23449 -12660584.74746  22532878.490    22532877.454    22532882.336
 -27998948.65149 -21784552.48248  20182099.563    20182099.713    20182101.432
 -12181355.56949  -9473373.83646  22745281.695    22745281.549    22745285.315
 -21071412.20149 -16327198.71647  21253530.120    21253529.688    21253533.362
 -25935313.01549 -20192037.45848  20705075.824    20705076.084    20705079.182
 02  1 10  1 42  0.0000000  0  6G20G24G13G27G 1G 4
 -14835106.63349 -11103353.13346  23033712.508    23033711.393    23033715.573
 -16350432.94849 -12717170.75346  22519059.516    22519059.480    22519063.234
 -27999155.30149 -21784713.50048  20182060.237    20182060.230    20182062.250
 -12268985.73249  -9541657.06146  22728606.211    22728606.133    22728610.065
 -21010575.57049 -16279793.55247  21265107.000    21265106.563    21265110.405
 -25932071.60449 -20189511.68948  20705692.656    20705692.907    20705696.181
 02  1 10  1 42 30.0000000  0  6G20G24G13G27G 1G 4
 -14749685.37149 -11036791.13346  23049967.725    23049967.340    23049970.592
 -16422671.90149 -12773460.84546  22505312.978    22505312.496    22505316.675
 -27998924.49049 -21784533.64148  20182104.145    20182104.420    20182106.318
 -12356360.14249  -9609741.02346  22711979.443    22711978.954    22711983.330
 -20949460.36049 -16232171.31447  21276736.798    21276736.352    21276740.186
 -25928252.84249 -20186536.04248  20706419.329    20706419.394    20706422.692
 02  1 10  1 43  0.0000000  0  6G20G24G13G27G 1G 4
 -14664074.89849 -10970081.70246  23066259.062    23066258.182    23066262.038
 -16494529.83549 -12829454.04546  22491638.968    22491639.082    22491642.895
 -27998258.24149 -21784014.48248  20182230.887    20182230.962    20182232.961
 -12443477.76649  -9677624.87146  22695401.528    22695401.271    22695405.327
 -20888069.53849 -16184334.31347  21288419.060    21288418.425    21288422.314
 -25923857.75749 -20183111.31348  20707255.635    20707255.815    20707259.179
 02  1 10  1 43 30.0000000  0  6G20G24G13G27G 1G 4
 -14578276.57349 -10903225.88746  23082586.068    23082586.318    23082589.975
 -16566004.80149 -12885148.82846  22478037.696    22478037.109    22478041.423
 -27997158.14049 -21783157.25548  20182440.296    20182440.607    20182442.218
 -12530336.99049  -9745307.38246  22678872.779    22678872.423    22678876.657
 -20826405.51649 -16136284.43047  21300153.245    21300152.841    21300156.568
 -25918886.91249 -20179237.94048  20708201.600    20708201.990    20708204.909
 02  1 10  1 44  0.0000000  0  6G20G24G13G27G 1G 4
 -14492289.18349 -10836222.73846  23098949.064    23098948.541    23098952.533
 -16637093.01949 -12940542.24446  22464509.979    22464510.203    22464513.565
 -27995623.18149 -21781961.17848  20182732.355    20182732.545    20182734.356
 -12616933.80949  -9812785.41946  22662393.889    22662393.551    22662397.936
 -20764468.23949 -16088021.62147  21311939.539    21311939.122    21311942.914
 -25913338.33649 -20174914.38448  20709257.483    20709257.619    20709260.868
 02  1 10  1 44 30.0000000  0  6G20G24G13G27G 1G 4
 -14406113.96949 -10769073.25246  23115347.753    23115346.918    23115350.901
 -16707792.66449 -12995632.87346  22451056.195    22451056.237    22451060.483
 -27993654.57249 -21780427.19548  20183106.996    20183107.196    20183109.003
 -12703266.57949  -9880057.70147  22645965.326    22645964.895    22645969.010
 -20702259.84649 -16039547.55747  21323777.397    21323776.906    21323780.719
 -25907212.09849 -20170140.70148  20710423.274    20710423.542    20710426.648
 02  1 10  1 45  0.0000000  0  6G20G24G13G27G 1G 4
 -14319752.41149 -10701778.56946  23131781.762    23131781.091    23131784.552
 -16778101.64749 -13050419.09446  22437677.005    22437676.860    22437680.708
 -27991253.92549 -21778556.55648  20183563.826    20183563.959    20183565.630
 -12789333.52749  -9947122.84147  22629587.319    22629587.413    22629591.003
 -20639782.55249 -15990863.95347  21335666.393    21335665.836    21335669.810
 -25900508.80049 -20164917.36448  20711698.859    20711698.979    20711702.308
 02  1 10  1 45 30.0000000  0  6G20G24G13G27G 1G 4
 -14233204.89849 -10634338.97346  23148250.971    23148250.610    23148254.855
 -16848017.80149 -13104899.20546  22424372.326    22424371.651    22424376.323
 -27988421.79949 -21776349.70148  20184102.742    20184102.776    20184104.796
 -12875132.44749 -10013979.13447  22613260.244    22613259.876    22613264.866
 -20577038.00449 -15941972.09847  21347606.278    21347605.880    21347609.564
 -25893228.41449 -20159244.34748  20713084.287    20713084.380    20713087.709
 02  1 10  1 46  0.0000000  0  6G20G24G13G27G 1G 4
 -14146470.41549 -10566753.68846  23164755.903    23164754.814    23164759.059
 -16917537.07049 -13159070.06546  22411143.169    22411142.649    22411146.805
 -27985157.28249 -21773805.92348  20184723.944    20184724.036    20184726.079
 -12960659.42849 -10080623.52347  22596984.919    22596984.623    22596988.760
 -20514026.10249 -15892871.92147  21359597.095    21359596.829    21359600.675
 -25885368.80749 -20153119.99048  20714579.914    20714580.015    20714583.374
 02  1 10  1 46 30.0000000  0  6G20G24G13G27G 1G 4
 -14059551.34749 -10499024.56446  23181296.014    23181296.223    23181299.545
 -16986658.51349 -13212930.92846  22397989.695    22397989.525    22397994.065
 -27981463.59949 -21770927.72848  20185426.859    20185427.050    20185428.938
 -13045913.90549 -10147055.57347  22580761.542    22580760.964    22580764.841
 -20450750.24249 -15843566.05747  21371638.126    21371637.753    21371641.388
 -25876931.75849 -20146545.67948  20716185.415    20716185.643    20716189.164
 02  1 10  1 47  0.0000000  0  6G20G24G13G27G 1G 4
 -13972449.39949 -10431152.93046  23197871.115    23197869.679    23197875.192
 -17055381.17449 -13266481.06046  22384912.155    22384911.768    22384916.046
 -27977342.33949 -21767716.35748  20186211.065    20186211.247    20186213.025
 -13130894.72049 -10213274.38647  22564590.330    22564589.919    22564594.737
 -20387213.16549 -15794056.65147  21383728.845    21383728.593    21383732.092
 -25867918.17949 -20139522.12648  20717900.624    20717900.816    20717904.101
 02  1 10  1 47 30.0000000  0  6G20G24G13G27G 1G 4
 -13885165.50749 -10363139.53446  23214480.655    23214479.500    23214483.483
 -17123702.70249 -13319718.60946  22371910.992    22371910.998    22371914.954
 -27972794.48549 -21764172.57148  20187076.519    20187076.688    20187078.465
 -13215599.94849 -10279278.45647  22548471.460    22548471.008    22548475.514
 -20323416.57349 -15744345.02247  21395869.043    21395868.718    21395872.169
 -25858328.23149 -20132049.45048  20719725.513    20719725.682    20719729.120
 02  1 10  1 48  0.0000000  0  6G20G24G13G27G 1G 4
 -13797696.15749 -10294981.63046  23231125.385    23231124.397    23231128.844
 -17191616.72849 -13372638.63446  22358987.362    22358987.245    22358991.249
 -27967816.77549 -21760293.83648  20188023.759    20188023.822    20188025.797
 -13300023.19449 -10345062.79747  22532406.248    22532405.640    22532409.958
 -20259358.17849 -15694429.39547  21408058.970    21408058.609    21408062.046
 -25848157.55749 -20124124.26348  20721660.946    20721661.292    20721664.525
 02  1 10  1 48 30.0000000  0  6G20G24G13G27G 1G 4
 -13710046.54649 -10226683.26446  23247804.630    23247804.340    23247808.276
 -17259125.17349 -13425242.62746  22346140.977    22346140.839    22346144.574
 -27962414.46149 -21756084.24248  20189051.741    20189051.990    20189053.903
 -13384166.52849 -10410629.03247  22516394.272    22516393.605    22516397.861
 -20195043.71449 -15644314.23747  21420297.566    21420297.307    21420300.579
 -25837410.70549 -20115750.10848  20723706.057    20723706.417    20723709.623
 02  1 10  1 49  0.0000000  0  7G20G24G13G27G 1G 4G 8
 -13622224.47849 -10158250.50646  23264516.795    23264515.551    23264520.672
 -17326233.09949 -13477534.51646  22333370.759    22333370.489    22333374.254
 -27956595.70449 -21751550.14048  20190159.040    20190159.094    20190161.148
 -13468035.07849 -10475981.14347  22500434.586    22500434.303    22500439.241
 -20130482.35649 -15594006.68647  21432583.211    21432582.862    21432586.219
 -25826095.01749 -20106932.69948  20725859.393    20725859.736    20725863.171
  -3874712.37749  -3001825.83145  24668043.848    24668043.229    24668047.467
 02  1 10  1 49 30.0000000  0  7G20G24G13G27G 1G 4G 8
 -13534218.46049 -10089674.40846  23281263.924    23281263.697    23281267.030
 -17392925.77249 -13529502.83947  22320679.674    22320680.005    22320683.581
 -27950349.06749 -21746682.62548  20191347.715    20191347.711    20191349.841
 -13551614.26449 -10541107.78447  22484529.950    22484529.984    22484533.612
 -20065663.41649 -15543498.42647  21444917.874    21444917.463    21444921.191
 -25814198.22749 -20097662.48848  20728123.321    20728123.559    20728127.067
  -3991386.61549  -3092740.83545  24645841.450    24645840.929    24645844.915
 02  1 10  1 50  0.0000000  0  7G20G24G13G27G 1G 4G 8
 -13446031.48649 -10020957.31146  23298045.324    23298044.130    23298048.556
 -17459203.16749 -13581147.56447  22308067.625    22308067.646    22308071.035
 -27943677.81649 -21741484.25148  20192617.201    20192617.422    20192619.323
 -13634904.26149 -10606009.08047  22468680.413    22468679.897    22468684.307
 -20000590.82349 -15492792.51847  21457300.766    21457300.300    21457303.802
 -25801722.50349 -20087941.15748  20730497.360    20730497.615    20730500.948
  -4108067.98549  -3183661.40845  24623637.656    24623636.621    24623641.308
 02  1 10  1 50 30.0000000  0  7G20G24G13G27G 1G 4G 8
 -13357662.18849  -9952098.15246  23314861.248    23314860.928    23314865.134
 -17525061.14849 -13632465.47247  22295535.251    22295534.553    22295539.206
 -27936580.76949 -21735954.08048  20193967.758    20193967.747    20193969.677
 -13717900.68749 -10670681.62747  22452886.719    22452886.350    22452890.705
 -19935264.15249 -15441888.62247  21469732.022    21469731.344    21469735.126
 -25788665.86249 -20077767.16348  20732981.935    20732982.175    20732985.511
  -4224751.92349  -3274583.94445  24601433.243    24601432.553    24601437.754
 02  1 10  1 51  0.0000000  0  7G20G24G13G27G 1G 4G 8
 -13269114.39149  -9883099.90846  23331711.405    23331710.553    23331715.115
 -17590500.38549 -13683457.08947  22283082.444    22283081.923    22283086.262
 -27929062.14449 -21730095.41148  20195398.477    20195398.746    20195400.565
 -13800604.59249 -10735126.22847  22437148.713    22437148.295    22437153.281
 -19869688.21149 -15390790.49147  21482210.651    21482210.235    21482213.860
 -25775031.59649 -20067143.07548  20735576.476    20735576.729    20735580.055
  -4341439.17249  -3365509.08745  24579228.404    24579228.454    24579232.342
 02  1 10  1 51 30.0000000  0  7G20G24G13G27G 1G 4G 8
 -13180388.52049  -9813962.89846  23348595.451    23348595.404    23348599.347
 -17655518.06149 -13734120.21847  22270709.910    22270709.908    22270713.749
 -27921122.51049 -21723908.67848  20196909.355    20196909.371    20196911.461
 -13883013.66149 -10799341.07547  22421466.805    22421466.302    22421470.803
 -19803864.42949 -15339499.23847  21494736.468    21494736.224    21494739.833
 -25760819.55049 -20056068.76948  20738280.988    20738281.397    20738284.557
  -4458126.97749  -3456434.67245  24557023.466    24557022.227    24557028.245
 02  1 10  1 52  0.0000000  0  7G20G24G13G27G 1G 4G 8
 -13091485.53249  -9744687.87346  23365513.333    23365513.232    23365516.745
 -17720112.73649 -13784453.73147  22258418.080    22258417.638    22258422.257
 -27912763.25949 -21717394.97248  20198500.060    20198500.309    20198502.129
 -13965126.01549 -10863324.71747  22405841.324    22405841.239    22405845.155
 -19737794.56249 -15288016.23147  21507309.177    21507308.800    21507312.585
 -25746030.26349 -20044544.66448  20741095.365    20741095.608    20741099.073
  -4574812.99649  -3547358.83345  24534818.975    24534818.279    24534823.089
 02  1 10  1 52 30.0000000  0  7G20G24G13G27G 1G 4G 8
 -13002407.55949  -9675276.48246  23382464.371    23382464.906    23382466.972
 -17784283.17049 -13834456.66847  22246206.893    22246206.732    22246210.581
 -27903986.59549 -21710556.01048  20200170.167    20200170.423    20200172.214
 -14046940.72849 -10927076.43447  22390272.453    22390272.447    22390276.336
 -19671481.60749 -15236343.80447  21519928.083    21519927.754    21519931.306
 -25730665.02449 -20032571.76348  20744019.270    20744019.514    20744022.767
  -4691496.32349  -3638280.93945  24512615.106    24512615.020    24512618.969
 02  1 10  1 53  0.0000000  0  7G20G24G13G27G 1G 4G 8
 -12913153.54849  -9605727.93846  23399448.876    23399447.879    23399452.732
 -17848025.74449 -13884126.20447  22234077.103    22234076.409    22234081.003
 -27894791.69449 -21703391.15348  20201919.948    20201920.222    20201921.951
 -14128454.13949 -10990593.36447  22374760.957    22374760.616    22374765.071
 -19604925.62249 -15184482.00047  21532593.277    21532592.906    21532596.556
 -25714722.78949 -20020149.25748  20747053.007    20747053.264    20747056.354
  -4808172.80149  -3729197.67245  24490412.234    24490410.681    24490416.245
 02  1 10  1 53 30.0000000  0  7G20G24G13G27G 1G 4G 8
 -12823724.88549  -9536043.29046  23416466.651    23416465.358    23416469.225
 -17911338.18649 -13933460.58047  22222029.039    22222028.740    22222032.811
 -27885180.00249 -21695901.52248  20203748.974    20203749.076    20203751.078
 -14209664.47549 -11053874.13847  22359307.124    22359306.944    22359310.978
 -19538128.65049 -15132432.41347  21545304.305    21545304.136    21545307.465
 -25698203.84349 -20007277.36448  20750196.488    20750196.558    20750199.896
  -4924840.32049  -3820107.41845  24468210.953    24468210.390    24468215.703
 02  1 10  1 54  0.0000000  0  7G20G24G13G27G 1G 4G 8
 -12734121.74549  -9466222.71346  23433517.382    23433516.714    23433520.595
 -17974217.85149 -13982457.72447  22210063.331    22210063.153    22210066.985
 -27875152.31349 -21688087.73848  20205657.166    20205657.225    20205659.244
 -14290569.11749 -11116916.69847  22343911.528    22343911.672    22343915.547
 -19471091.79449 -15080195.90447  21558061.007    21558060.425    21558064.247
 -25681108.06949 -19993955.99448  20753449.641    20753449.756    20753453.171
  -5041496.02449  -3911007.96845  24446011.953    24446011.089    24446017.056
 02  1 10  1 54 30.0000000  0  7G20G24G13G27G 1G 4G 8
 -12644345.34749  -9396267.11446  23450601.387    23450600.657    23450604.939
 -18036663.24249 -14031116.46547  22198180.352    22198180.489    22198184.130
 -27864709.81949 -21679950.72448  20207644.316    20207644.489    20207646.469
 -14371166.65049 -11179719.96147  22328574.317    22328573.990    22328578.617
 -19403817.31849 -15027774.24047  21570862.871    21570862.493    21570866.321
 -25663436.46549 -19980185.92648  20756812.412    20756812.708    20756816.024
  -5158137.89549  -4001897.74845  24423815.802    24423815.624    24423819.938
 02  1 10  1 55  0.0000000  0  7G20G24G13G27G 1G 4G 8
 -12554397.21449  -9326177.68746  23467717.745    23467717.577    23467721.026
 -18098672.69549 -14079435.51847  22186380.368    22186379.969    22186384.137
 -27853854.49149 -21671492.02348  20209709.984    20209710.119    20209711.954
 -14451455.77749 -11242282.90247  22313295.829    22313295.397    22313299.851
 -19336307.35149 -14975169.07547  21583709.583    21583709.229    21583713.091
 -25645189.76149 -19965967.73148  20760284.652    20760284.844    20760288.013
  -5274764.46449  -4092775.58645  24401622.490    24401621.059    24401626.650
 02  1 10  1 55 30.0000000  0  7G20G24G13G27G 1G 4G 8
 -12464276.72149  -9255953.95146  23484867.073    23484866.215    23484871.420
 -18160242.95549 -14127412.34947  22174664.014    22174664.199    22174667.914
 -27842586.09749 -21662711.45748  20211854.264    20211854.444    20211856.475
 -14531432.94049 -11304602.76247  22298076.754    22298076.133    22298080.432
 -19268562.43949 -14922380.84047  21596600.988    21596600.634    21596604.466
 -25626367.17149 -19951300.79548  20763866.493    20763866.884    20763869.982
  -5391371.58949  -4183638.29245  24379432.871    24379433.270    24379437.352
 02  1 10  1 56  0.0000000  0  7G20G24G13G27G 1G 4G 8
 -12373986.64349  -9185598.07346  23502048.674    23502047.711    23502052.420
 -18221373.81649 -14175046.77947  22163031.282    22163031.293    22163035.114
 -27830907.71849 -21653611.41848  20214076.589    20214076.776    20214078.656
 -14611098.08949 -11366679.48947  22282916.993    22282916.738    22282920.527
 -19200586.17049 -14869412.31547  21609536.403    21609536.259    21609539.589
 -25606971.03349 -19936186.92948  20767557.497    20767557.659    20767560.938
  -5507958.96149  -4274485.59445  24357247.007    24357246.109    24357251.604
 02  1 10  1 56 30.0000000  0  7G20G24G13G27G 1G 4G 8
 -12283526.66149  -9115109.80046  23519262.673    23519261.674    23519265.065
 -18282062.00849 -14222336.28047  22151482.803    22151482.808    22151486.654
 -27818818.98549 -21644191.62648  20216376.982    20216377.233    20216378.991
 -14690447.90049 -11428510.49647  22267817.203    22267816.611    22267821.137
 -19132379.00349 -14816263.88547  21622515.798    21622515.654    21622519.195
 -25587000.39349 -19920625.40848  20771357.793    20771357.948    20771361.344
  -5624522.93049  -4365314.65545  24335065.452    24335065.035    24335070.198
 02  1 10  1 57  0.0000000  0  7G20G24G13G27G 1G 4G 8
 -12192896.97649  -9044489.29546  23536509.048    23536507.505    23536512.754
 -18342304.58649 -14269278.55147  22140019.088    22140019.194    22140022.793
 -27806320.30249 -21634452.38848  20218755.395    20218755.637    20218757.599
 -14769479.80549 -11490093.78947  22252777.925    22252777.493    22252781.880
 -19063941.88349 -14762936.26247  21635538.955    21635538.638    21635542.301
 -25566455.22549 -19904616.19948  20775267.411    20775267.691    20775271.100
  -5741060.31849  -4456123.02845  24312889.248    24312888.817    24312893.856
 02  1 10  1 57 30.0000000  0  7G20G24G13G27G 1G 4G 8
 -12102098.72349  -8973737.43646  23553787.481    23553787.182    23553791.183
 -18402099.76849 -14315872.19847  22128640.505    22128640.061    22128644.233
 -27793413.40049 -21624395.06248  20221211.501    20221211.776    20221213.670
 -14848192.42449 -11551428.27647  22237799.359    22237798.842    22237803.009
 -18995277.16449 -14709431.29347  21648605.402    21648605.332    21648608.689
 -25545336.52449 -19888160.08348  20779286.155    20779286.379    20779289.743
  -5857569.35949  -4546909.29845  24290718.438    24290718.476    24290721.867
 02  1 10  1 58  0.0000000  0  7G20G24G13G27G 1G 4G 8
 -12011133.06449  -8902855.12246  23571097.756    23571097.829    23571100.967
 -18461445.71949 -14362115.79447  22117347.330    22117346.999    22117351.050
 -27780099.75449 -21614020.79748  20223745.036    20223745.292    20223747.182
 -14926583.81449 -11612512.47547  22222881.940    22222881.739    22222885.933
 -18926386.56149 -14655750.30947  21661714.974    21661714.927    21661718.295
 -25523644.90249 -19871257.53648  20783413.961    20783414.222    20783417.348
  -5974047.75049  -4637671.68445  24268553.280    24268553.110    24268557.520
 02  1 10  1 58 30.0000000  0  7G20G24G13G27G 1G 4G 8
 -11920000.58449  -8831842.82446  23588439.718    23588438.844    23588443.144
 -18520340.35749 -14408007.71747  22106140.079    22106140.038    22106143.885
 -27766380.02749 -21603330.09648  20226355.824    20226356.065    20226357.875
 -15004651.92349 -11673344.74847  22208025.980    22208025.674    22208029.974
 -18857271.60449 -14601894.50747  21674867.156    21674866.792    21674870.446
 -25501380.70649 -19853908.82648  20787650.692    20787650.859    20787654.173
  -6090492.85649  -4728408.12045  24246394.343    24246393.231    24246399.801
 02  1 10  1 59  0.0000000  0  7G20G24G13G27G 1G 4G 8
 -11828701.40349  -8760700.63845  23605813.278    23605812.926    23605816.574
 -18578780.66449 -14453545.62147  22095019.266    22095019.117    22095022.979
 -27752254.64649 -21592323.30348  20229043.849    20229044.064    20229045.819
 -15082393.87049 -11733922.87747  22193232.230    22193232.175    22193236.199
 -18787933.01549 -14547864.44047  21688061.854    21688061.797    21688064.968
 -25478543.49649 -19836113.61148  20791996.510    20791996.710    20792000.199
  -6206901.32949  -4819116.03445  24224242.566    24224241.477    24224246.913
 02  1 10  1 59 30.0000000  0  7G20G24G13G27G 1G 4G 8
 -11737237.26349  -8689429.90245  23623218.275    23623217.707    23623221.233
 -18636765.70349 -14498728.77447  22083985.016    22083985.075    22083988.707
 -27737725.71249 -21581002.05748  20231808.577    20231808.750    20231810.682
 -15159808.74449 -11794246.14647  22178500.643    22178500.314    22178504.353
 -18718373.72849 -14493662.40247  21701298.644    21701298.444    21701301.660
 -25455135.00549 -19817873.24648  20796451.015    20796451.326    20796454.752
  -6323272.05049  -4909794.51745  24202098.099    24202097.966    24202103.029
 02  1 10  2  0  0.0000000  0  7G20G24G13G27G 1G 4G 8
 -11645608.10549  -8618030.58545  23640654.651    23640654.416    23640658.206
 -18694292.75249 -14543555.04047  22073037.978    22073037.524    22073041.749
 -27722793.48749 -21569366.55648  20234650.090    20234650.303    20234652.102
 -15236893.78449 -11854312.39347  22163831.849    22163831.469    22163835.809
 -18648594.28449 -14439288.81347  21714577.266    21714577.301    21714580.320
 -25431155.09649 -19799187.62148  20801014.277    20801014.527    20801017.778
  -6439601.52849  -5000440.87645  24179961.456    24179961.081    24179964.980
 02  1 10  2  0 30.0000000  0  7G20G24G13G27G 1G 4G 8
 -11553814.37249  -8546503.01745  23658122.502    23658122.273    23658125.810
 -18751358.76349 -14588022.06147  22062178.613    22062178.172    22062182.340
 -27707458.64549 -21557417.32648  20237568.188    20237568.273    20237570.343
 -15313646.65849 -11914119.81747  22149226.251    22149225.730    22149230.027
 -18578595.93149 -14384744.64647  21727897.525    21727897.170    21727900.592
 -25406603.78149 -19780056.74148  20805686.242    20805686.253    20805689.628
  -6555886.80549  -5091052.77045  24157832.944    24157832.770    24157837.154
 02  1 10  2  1  0.0000000  0  7G20G24G13G27G 1G 4G 8
 -11461857.76049  -8474848.54945  23675621.238    23675620.439    23675624.145
 -18807962.70249 -14632129.02647  22051407.150    22051406.959    22051410.912
 -27691723.26849 -21545155.99148  20240562.522    20240562.690    20240564.588
 -15390066.12549 -11973667.44547  22134684.104    22134684.207    22134687.816
 -18508381.11149 -14330031.80947  21741258.954    21741258.620    21741262.275
 -25381482.47349 -19760481.70748  20810466.641    20810466.804    20810470.103
  -6672126.21349  -5181628.94145  24135713.163    24135712.674    24135718.597
 02  1 10  2  1 30.0000000  0  7G20G24G13G27G 1G 4G 8
 -11369738.31249  -8403067.18845  23693150.998    23693150.263    23693154.707
 -18864102.36049 -14675874.21947  22040724.067    22040724.034    22040728.212
 -27675587.71149 -21532582.83248  20243633.001    20243633.404    20243635.053
 -15466149.53349 -12032953.21247  22120205.981    22120205.580    22120210.007
 -18437950.80149 -14275151.05747  21754661.380    21754660.932    21754664.567
 -25355791.04949 -19740462.43348  20815355.561    20815355.789    20815359.208
  -6788316.70649  -5272166.94845  24113602.490    24113601.691    24113606.955
 02  1 10  2  2  0.0000000  0  7G20G24G13G27G 1G 4G 8
 -11277457.39849  -8331159.99745  23710711.575    23710711.626    23710714.834
 -18919775.65249 -14719256.00347  22030129.862    22030129.759    22030133.578
 -27659053.47649 -21519699.00748  20246779.406    20246779.576    20246781.420
 -15541895.41349 -12091975.95547  22105791.862    22105791.409    22105795.354
 -18367306.99449 -14220103.93247  21768104.450    21768103.805    21768107.530
 -25329530.76049 -19719999.88448  20820352.776    20820353.030    20820356.314
  -6904456.06549  -5362665.17345  24091501.960    24091501.980    24091507.846
 02  1 10  2  2 30.0000000  0  7G20G24G13G27G 1G 4G 8
 -11185015.43549  -8259127.32545  23728302.715    23728302.188    23728307.088
 -18974980.31549 -14762272.62747  22019624.837    22019624.791    22019628.704
 -27642121.51849 -21506505.27648  20250001.442    20250001.626    20250003.582
 -15617301.59149 -12150734.00547  22091442.560    22091442.623    22091446.592
 -18296450.95049 -14164891.43647  21781587.908    21781587.451    21781591.150
 -25302701.94149 -19699094.32848  20825458.163    20825458.345    20825461.739
  -7020541.70949  -5453121.50145  24069411.560    24069411.653    24069416.806
 02  1 10  2  3  0.0000000  0  7G20G24G13G27G 1G 4G 8
 -11092414.12749  -8186970.49245  23745924.376    23745924.139    23745927.815
 -19029715.23849 -14804923.22347  22009209.138    22009208.712    22009213.306
 -27624793.82349 -21493003.17648  20253298.790    20253299.133    20253300.919
 -15692366.89049 -12209226.43047  22077158.101    22077157.752    22077161.749
 -18225384.98649 -14109515.36947  21795111.211    21795110.699    21795114.798
 -25275306.03849 -19677746.88948  20830671.456    20830671.766    20830674.930
  -7136571.93749  -5543534.67245  24047331.990    24047331.968    24047336.064
 02  1 10  2  3 30.0000000  0  7G20G24G13G27G 1G 4G 8
 -10999653.89249  -8114689.81245  23763576.192    23763575.529    23763580.056
 -19083977.75749 -14847205.70447  21998883.330    21998882.930    21998887.462
 -27607070.98049 -21479193.16848  20256671.348    20256671.528    20256673.258
 -15767089.03849 -12267451.46747  22062938.952    22062938.535    22062942.813
 -18154110.36249 -14053976.70847  21808674.228    21808673.759    21808677.542
 -25247343.43049 -19655957.86548  20835992.572    20835992.632    20835995.900
  -7252543.76249  -5633902.33745  24025263.668    24025263.616    24025268.250
 02  1 10  2  4  0.0000000  0  7G20G24G13G27G 1G 4G 8
 -10906735.49649  -8042285.87945  23781258.065    23781257.048    23781261.958
 -19137765.88049 -14889118.53147  21988647.752    21988647.656    21988651.819
 -27588954.30949 -21465076.27848  20260118.807    20260118.962    20260120.916
 -15841466.10149 -12325407.60247  22048785.421    22048785.034    22048789.182
 -18082628.68449 -13998276.71047  21822276.735    21822276.392    21822280.351
 -25218814.94449 -19633727.89148  20841421.371    20841421.484    20841424.867
  -7368454.78949  -5724222.61345  24003206.686    24003206.086    24003210.940
 02  1 10  2  4 30.0000000  0  7G20G24G13G27G 1G 4G 8
 -10813659.61549  -7969759.26545  23798969.812    23798969.117    23798973.767
 -19191077.59249 -14930660.13447  21978502.917    21978502.649    21978506.892
 -27570444.68749 -21450653.19648  20263641.091    20263641.133    20263643.123
 -15915495.79449 -12383093.06247  22034698.070    22034697.606    22034702.095
 -18010941.23249 -13942416.36347  21835918.423    21835918.268    21835922.139
 -25189720.94149 -19611057.25748  20846957.723    20846957.901    20846961.241
  -7484302.16949  -5814493.30345  23981161.490    23981160.368    23981165.126
 02  1 10  2  5  0.0000000  0  7G20G24G13G27G 1G 4G 8
 -10720426.63949  -7897110.20845  23816711.467    23816711.164    23816714.223
 -19243910.61549 -14971828.72747  21968449.085    21968448.659    21968452.951
 -27551542.79449 -21435924.44748  20267238.004    20267238.223    20267240.090
 -15989175.86449 -12440506.08347  22020677.241    22020676.823    22020680.841
 -17939049.24249 -13886396.63847  21849599.035    21849598.758    21849602.373
 -25160061.81449 -19587946.26748  20852601.669    20852601.884    20852605.198
  -7600083.11249  -5904712.21845  23959128.945    23959128.021    23959132.598
 02  1 10  2  5 30.0000000  0  7G20G24G13G27G 1G 4G 8
 -10627037.08649  -7824339.14945  23834482.985    23834482.201    23834486.562
 -19296262.39949 -15012622.32647  21958486.808    21958486.496    21958490.823
 -27532249.16049 -21420890.44448  20270909.436    20270909.691    20270911.423
 -16062504.03149 -12497644.89547  22006723.287    22006722.803    22006727.105
 -17866953.79849 -13830218.37647  21863318.299    21863318.130    21863321.449
 -25129837.93549 -19564395.21248  20858353.125    20858353.372    20858356.841
  -7715794.51249  -5994876.93945  23937109.821    23937109.794    23937115.197
 02  1 10  2  6  0.0000000  0  7G20G24G13G27G 1G 4G 8
 -10533492.18349  -7751447.05845  23852283.949    23852283.128    23852287.146
 -19348131.57849 -15053039.87047  21948616.406    21948616.099    21948620.635
 -27512565.80549 -21405552.76348  20274655.076    20274655.358    20274657.216
 -16135478.86649 -12554508.38547  21992836.664    21992836.146    21992840.320
 -17794656.94749 -13773883.17247  21877075.965    21877075.606    21877079.010
 -25099050.41449 -19540404.95248  20864211.788    20864211.917    20864215.472
  -7831434.51249  -6084986.05045  23915104.306    23915103.768    23915109.596
 02  1 10  2  6 30.0000000  0  7G20G24G13G27G 1G 4G 8
 -10439793.79649  -7678435.34845  23870114.106    23870112.175    23870117.976
 -19399516.92149 -15093080.40347  21938838.109    21938837.679    21938842.163
 -27492494.77149 -21389912.99748  20278474.510    20278474.624    20278476.608
 -16208099.65149 -12611095.99347  21979017.358    21979017.303    21979021.215
 -17722161.29349 -13717393.05947  21890871.537    21890871.245    21890874.318
 -25067701.65149 -19515977.36748  20870177.210    20870177.427    20870180.918
  -7947001.59349  -6175038.31945  23893112.650    23893112.852    23893117.396
 02  1 10  2  7  0.0000000  0  7G20G24G13G27G 1G 4G 8
 -10345941.55749  -7605303.74745  23887973.473    23887971.561    23887976.885
 -19450415.29349 -15132741.47247  21929152.378    21929152.074    21929156.576
 -27472035.99149 -21373971.08748  20282367.675    20282367.729    20282369.797
 -16280363.31649 -12667405.32447  21965266.069    21965265.583    21965269.641
 -17649467.22049 -13660748.32747  21904704.716    21904704.479    21904708.230
 -25035790.90949 -19491111.87348  20876249.696    20876250.083    20876253.434
  -8062492.09049  -6265030.92145  23871135.578    23871134.707    23871140.594
 02  1 10  2  7 30.0000000  0  7G20G24G13G27G 1G 4G 8
 -10251936.74349  -7532053.28045  23905861.931    23905860.807    23905866.399
 -19500825.61049 -15172022.24347  21919559.582    21919559.375    21919563.539
 -27451191.11449 -21357728.32448  20286334.292    20286334.463    20286336.392
 -16352268.42049 -12723435.25947  21951582.900    21951582.366    21951586.753
 -17576576.65649 -13603950.49147  21918575.363    21918575.366    21918578.496
 -25003319.56649 -19465809.54848  20882428.818    20882428.955    20882432.332
  -8177903.80949  -6354962.13445  23849173.662    23849174.190    23849178.049
 02  1 10  2  8  0.0000000  0  7G20G24G13G27G 1G 4G 8
 -10157780.28949  -7458684.62445  23923779.443    23923779.282    23923781.347
 -19550745.56949 -15210920.91847  21910060.099    21910059.821    21910064.454
 -27429961.25349 -21341185.57348  20290374.212    20290374.346    20290376.267
 -16423813.12249 -12779184.35847  21937968.355    21937968.041    21937972.255
 -17503491.05049 -13547000.67547  21932483.160    21932482.738    21932486.260
 -24970288.48349 -19440071.05948  20888714.373    20888714.464    20888717.972
  -8293234.10249  -6444829.89645  23827227.109    23827225.605    23827231.466
 02  1 10  2  8 30.0000000  0  7G20G24G13G27G 1G 4G 8
 -10063472.68249  -7385198.20545  23941725.418    23941724.439    23941728.802
 -19600173.72749 -15249436.37047  21900654.232    21900654.043    21900658.216
 -27408347.46949 -21324343.66248  20294487.172    20294487.349    20294489.308
 -16494995.53449 -12834651.15247  21924422.752    21924422.158    21924426.407
 -17430211.91049 -13489900.05647  21946427.690    21946427.135    21946430.968
 -24936698.47249 -19413897.04748  20895106.336    20895106.549    20895109.959
  -8408480.50149  -6534632.27745  23805296.228    23805295.637    23805300.820
 02  1 10  2  9  0.0000000  0  7G20G24G13G27G 1G 4G 8
  -9969014.60949  -7311594.54945  23959700.218    23959700.235    23959703.975
 -19649107.58549 -15287566.65347  21891342.429    21891342.189    21891346.768
 -27386350.78649 -21307203.38648  20298672.989    20298673.051    20298675.066
 -16565813.44349 -12889833.92047  21910946.470    21910945.918    21910950.208
 -17356740.33349 -13432649.48147  21960408.824    21960408.286    21960412.152
 -24902550.18949 -19387288.01948  20901604.569    20901604.880    20901608.341
  -8523640.08149  -6624367.01245  23783382.134    23783381.887    23783387.260
 02  1 10  2  9 30.0000000  0  7G20G24G13G27G 1G 4G 8
  -9874407.49149  -7237874.73945  23977703.426    23977703.971    23977706.174
 -19697545.81449 -15325310.73247  21882124.831    21882124.710    21882129.237
 -27363972.88349 -21289766.05848  20302931.341    20302931.513    20302933.361
 -16636265.57349 -12944731.66747  21897539.882    21897539.709    21897543.580
 -17283078.45749 -13375250.62447  21974426.186    21974426.041    21974429.750
 -24867845.16949 -19360245.16648  20908208.710    20908208.888    20908212.387
  -8638711.02549  -6714032.67845  23761484.967    23761484.507    23761489.500
 02  1 10  2 10  0.0000000  0  7G20G24G13G27G 1G 4G 8
  -9779651.70749  -7164039.09845  23995734.956    23995734.239    23995738.856
 -19745485.74049 -15362666.52247  21873002.155    21873001.876    21873006.519
 -27341214.17749 -21272031.99548  20307262.146    20307262.375    20307264.429
 -16706349.55249 -12999342.54347  21884203.391    21884203.201    21884207.330
 -17209227.14049 -13317704.14847  21988479.663    21988479.143    21988483.142
 -24832583.84949 -19332768.83248  20914918.708    20914918.993    20914922.510
  -8753689.90149  -6803626.60645  23739605.303    23739604.274    23739609.103
 02  1 10  2 10 30.0000000  0  7G20G24G13G27G 1G 4G 8
  -9684749.17849  -7090089.08245  24013794.476    24013793.167    24013796.210
 -19792926.95349 -15399633.70947  21863974.392    21863974.286    21863979.038
 -27318077.22149 -21254003.19548  20311665.018    20311665.067    20311667.130
 -16776064.80649 -13053666.09747  21870937.031    21870936.756    21870940.901
 -17135189.19249 -13260012.25047  22002568.623    22002568.369    22002572.371
 -24796768.26249 -19304860.60248  20921734.210    20921734.654    20921737.929
  -8868575.66349  -6893147.94745  23717743.205    23717742.269    23717747.022
 02  1 10  2 11  0.0000000  0  7G20G24G13G27G 1G 4G 8
  -9589698.87249  -7016023.93445  24031882.048    24031880.875    24031886.959
 -19839865.93249 -15436209.54047  21855042.232    21855042.449    21855046.460
 -27294561.41549 -21235679.18848  20316139.892    20316140.039    20316142.026
 -16845407.85749 -13107699.62747  21857741.515    21857741.091    21857745.067
 -17060964.22049 -13202174.62247  22016693.237    22016693.150    22016695.963
 -24760397.93549 -19276520.11048  20928655.280    20928655.603    20928659.021
  -8983363.85749  -6982593.29945  23695899.774    23695899.210    23695903.853
 02  1 10  2 11 30.0000000  0  7G20G24G13G27G 1G 4G 8
  -9494502.14349  -6941844.69045  24049997.400    24049997.333    24050000.267
 -19886301.41149 -15472393.03647  21846205.955    21846205.766    21846210.606
 -27270668.51149 -21217061.34248  20320686.580    20320686.691    20320688.612
 -16914377.20449 -13161441.96347  21844617.055    21844616.717    21844620.707
 -16986554.12749 -13144192.73147  22030853.038    22030852.558    22030856.294
 -24723474.00849 -19247748.24048  20935681.730    20935681.989    20935685.390
  -9098052.38349  -7071960.97245  23674075.212    23674073.900    23674079.492
 02  1 10  2 12  0.0000000  0  7G20G24G13G27G 1G 4G 8
  -9399161.24749  -6867553.12645  24068140.006    24068139.903    24068141.947
 -19932232.28749 -15508183.33147  21837465.613    21837465.167    21837469.441
 -27246400.80349 -21198151.43948  20325304.536    20325304.814    20325306.724
 -16982972.46649 -13214892.79947  21831563.866    21831563.663    21831567.610
 -16911961.68749 -13086068.76347  22045047.480    22045047.071    22045050.885
 -24685999.02049 -19218546.96948  20942813.012    20942813.302    20942816.827
  -9212639.98949  -7161249.99545  23652269.903    23652269.694    23652274.033
 02  1 10  2 12 30.0000000  0  7G20G24G13G27G 1G 4G 8
  -9303677.63149  -6793150.30245  24086309.827    24086307.896    24086312.734
 -19977657.63249 -15543579.71247  21828821.497    21828821.371    21828825.612
 -27221760.07249 -21178950.86448  20329993.530    20329993.688    20329995.693
 -17051192.53849 -13268051.27347  21818582.007    21818581.750    21818586.012
 -16837188.90249 -13027804.25647  22059276.347    22059275.971    22059279.737
 -24647974.50649 -19188917.49948  20950048.848    20950049.003    20950052.566
  -9327124.60849  -7250458.78745  23630484.340    23630483.747    23630488.744
 02  1 10  2 13  0.0000000  0  7G20G24G13G27G 1G 4G 8
  -9208049.43449  -6718634.86445  24104507.301    24104507.337    24104512.542
 -20022573.19749 -15578578.85847  21820274.378    21820274.139    21820278.334
 -27196745.02949 -21159458.62048  20334753.682    20334753.883    20334755.796
 -17119032.97149 -13320913.93247  21805672.398    21805672.117    21805675.895
 -16762234.62549 -12969398.34047  22073539.687    22073539.257    22073543.158
 -24609399.10949 -19158858.77048  20957389.507    20957389.781    20957393.218
  -9441501.22449  -7339583.41645  23608719.287    23608718.544    23608723.736
 02  1 10  2 13 30.0000000  0  7G20G24G13G27G 1G 4G 8
  -9112277.82749  -6644007.66045  24122731.996    24122730.041    24122736.444
 -20066977.50949 -15613179.62447  21811824.474    21811824.338    21811828.576
 -27171356.88249 -21139675.64648  20339584.889    20339584.918    20339586.938
 -17186492.23149 -13373479.57147  21792835.341    21792834.914    21792838.947
 -16687100.62649 -12910852.37747  22087837.249    22087836.929    22087840.892
 -24570274.17349 -19128371.83248  20964834.786    20964835.067    20964838.723
  -9555767.43949  -7428622.00645  23586975.178    23586974.088    23586978.936
 02  1 10  2 14  0.0000000  0  7G20G24G13G27G 1G 4G 8
  -9016365.66449  -6569270.94145  24140983.539    24140985.573    24140986.218
 -20110870.44349 -15647381.91647  21803471.950    21803471.701    21803475.933
 -27145599.02349 -21119604.58948  20344486.443    20344486.555    20344488.468
 -17253570.42649 -13425748.27547  21780070.722    21780070.561    21780074.425
 -16611790.00249 -12852168.78647  22102168.370    22102168.057    22102171.661
 -24530602.69949 -19097459.01748  20972384.038    20972384.320    20972387.842
  -9669922.56049  -7517574.04445  23565252.136    23565251.126    23565256.315
 02  1 10  2 14 30.0000000  0  7G20G24G13G27G 1G 4G 8
  -8920312.03449  -6494423.98445  24159262.086    24159259.992    24159266.592
 -20154248.68449 -15681183.14147  21795217.380    21795217.395    21795221.498
 -27119471.00249 -21099245.08548  20349458.425    20349458.493    20349460.576
 -17320264.32349 -13477717.52347  21767379.250    21767379.267    21767383.007
 -16536302.69349 -12793347.51647  22116533.026    22116532.793    22116536.705
 -24490384.33949 -19066120.05748  20980037.362    20980037.512    20980041.209
  -9783962.47149  -7606436.29045  23543550.994    23543550.289    23543555.265
 02  1 10  2 15  0.0000000  0  7G20G24G13G27G 1G 4G 8
  -8824117.93449  -6419467.57145  24177567.121    24177565.560    24177571.939
 -20197110.77949 -15714582.18747  21787061.031    21787061.511    21787064.924
 -27092973.75849 -21078597.88348  20354500.665    20354500.792    20354502.763
 -17386572.04949 -13529385.86247  21754761.343    21754761.002    21754764.883
 -16460640.24449 -12734389.78047  22130931.176    22130930.895    22130934.467
 -24449620.10649 -19034355.74348  20987794.578    20987794.582    20987798.142
  -9897884.62349  -7695206.79545  23521872.340    23521871.337    23521876.006
 02  1 10  2 15 30.0000000  0  8G20G24G13G10G27G 1G 4G 8
  -8727797.01749  -6344412.39445  24195896.260    24195897.988    24195900.107
 -20239467.63449 -15747587.53447  21779000.901    21779000.871    21779004.712
 -27066121.61649 -21057674.13448  20359610.426    20359610.725    20359612.485
  -5652572.13849  -4382004.23245  24585553.237    24585552.306    24585554.292
 -17452504.87549 -13580762.07547  21742214.689    21742214.568    21742218.493
 -16384816.91949 -12675306.68347  22145359.908    22145359.726    22145362.876
 -24408324.23049 -19002177.16348  20995652.924    20995653.222    20995656.525
 -10011699.43749  -7783893.63846  23500214.095    23500213.611    23500218.232
 02  1 10  2 16  0.0000000  0  8G20G24G13G10G27G 1G 4G 8
  -8631332.49349  -6269245.20445  24214252.960    24214249.124    24214251.232
 -20281299.95249 -15780184.14547  21771040.536    21771040.392    21771044.331
 -27038898.21149 -21036461.09048  20364790.895    20364791.108    20364792.960
  -5750467.11949  -4458286.06945  24566924.467    24566924.342    24566927.139
 -17518043.44349 -13631831.06547  21729743.135    21729742.962    21729746.651
 -16308816.50749 -12616085.58947  22159822.357    22159821.925    22159825.676
 -24366480.13749 -18969571.39548  21003615.629    21003615.919    21003619.285
 -10125386.40949  -7872480.86545  23478580.087    23478579.118    23478584.462
 02  1 10  2 16 30.0000000  0  8G20G24G13G10G27G 1G 4G 8
  -8534728.69249  -6193969.58545  24232635.875    24232638.573    24232633.887
 -20322609.42649 -15812373.35147  21763179.628    21763179.384    21763183.275
 -27011307.97549 -21014962.20448  20370041.127    20370041.164    20370043.174
  -5848339.75549  -4534550.39445  24548299.880    24548297.607    24548302.758
 -17583189.55249 -13682594.24547  21717346.204    21717345.794    21717350.073
 -16232643.79749 -12556730.24047  22174317.594    22174317.010    22174320.850
 -24324092.65249 -18936542.20747  21011681.703    21011681.895    21011685.445
 -10238946.53349  -7960969.25046  23456970.242    23456969.688    23456974.824
 02  1 10  2 17  0.0000000  0  8G20G24G13G10G27G 1G 4G 8
  -8437986.19149  -6118585.80045  24251045.616    24251042.593    24251044.537
 -20363394.08149 -15844153.60647  21755418.569    21755418.387    21755422.456
 -26983351.65549 -20993178.05848  20375361.016    20375361.071    20375363.296
  -5946188.40049  -4610796.07745  24529679.946    24529679.866    24529684.064
 -17647941.01649 -13733049.91047  21705024.379    21705023.935    21705028.426
 -16156299.88549 -12497241.48447  22188845.411    22188844.742    22188848.845
 -24281162.41049 -18903090.09247  21019851.069    21019851.360    21019854.915
 -10352376.66149  -8049356.34246  23435385.240    23435384.691    23435389.723
 02  1 10  2 17 30.0000000  0  8G20G24G13G10G27G 1G 4G 8
  -8341106.36349  -6043095.07445  24269481.172    24269481.807    24269486.306
 -20403653.02249 -15875524.21347  21747757.639    21747757.311    21747760.914
 -26955031.33249 -20971110.27648  20380750.182    20380750.470    20380752.230
  -6044012.47149  -4687022.58545  24511064.570    24511064.253    24511066.699
 -17712297.10249 -13783197.49147  21692777.786    21692777.503    21692781.243
 -16079786.65349 -12437620.79847  22203405.299    22203404.703    22203408.838
 -24237691.52349 -18869216.69547  21028123.327    21028123.563    21028126.999
 -10465675.16249  -8137640.86546  23413825.283    23413824.666    23413829.803
 02  1 10  2 18  0.0000000  0  8G20G24G13G10G27G 1G 4G 8
  -8244091.23149  -5967498.85145  24287942.512    24287943.866    24287949.087
 -20443385.68149 -15906484.72747  21740196.824    21740196.545    21740200.582
 -26926349.29249 -20948760.63248  20386208.230    20386208.462    20386210.506
  -6141811.83749  -4763229.91245  24492454.016    24492453.917    24492457.915
 -17776256.95749 -13833036.31547  21680606.674    21680606.379    21680610.285
 -16003106.34349 -12377869.91147  22217996.999    22217996.951    22218000.182
 -24193682.12849 -18834923.67847  21036498.095    21036498.325    21036501.921
 -10578840.35549  -8225821.51646  23392290.761    23392290.244    23392295.216
 02  1 10  2 18 30.0000000  0  8G20G24G13G10G27G 1G 4G 8
  -8146941.58949  -5891797.88845  24306429.438    24306426.311    24306437.760
 -20482590.25449 -15937033.75047  21732736.404    21732736.030    21732740.196
 -26897306.55049 -20926129.92348  20391734.868    20391734.866    20391737.033
  -6239585.19849  -4839416.86145  24473848.013    24473846.639    24473851.333
 -17839819.10749 -13882565.24247  21668511.219    21668510.892    21668514.848
 -15926260.63749 -12317990.14047  22232620.263    22232619.748    22232623.377
 -24149135.75549 -18800212.24147  21044975.016    21044975.167    21044978.721
 -10691869.56549  -8313896.20846  23370781.916    23370780.585    23370786.038
 02  1 10  2 19  0.0000000  0  8G20G24G13G10G27G 1G 4G 8
  -8049659.46049  -5815993.70945  24324941.658    24324942.663    24324950.045
 -20521266.51949 -15967171.10047  21725376.485    21725376.215    21725380.360
 -26867905.47149 -20903219.99448  20397329.684    20397329.832    20397331.816
  -6337332.69349  -4915583.76545  24455247.450    24455246.345    24455250.067
 -17902982.95449 -13931783.80047  21656491.527    21656491.373    21656495.094
 -15849251.90049 -12257983.33447  22247274.586    22247273.933    22247278.278
 -24104054.76449 -18765084.21947  21053553.620    21053553.518    21053557.131
 -10804761.45649  -8401863.89346  23349299.202    23349298.687    23349302.806
 02  1 10  2 19 30.0000000  0  8G20G24G13G10G27G 1G 4G 8
  -7952246.77449  -5740087.70845  24343478.793    24343480.419    24343484.226
 -20559413.49649 -15996896.02347  21718117.357    21718116.861    21718121.194
 -26838148.32149 -20880032.60248  20402992.283    20402992.612    20402994.360
  -6435053.99749  -4991730.20045  24436651.891    24436652.108    24436654.014
 -17965747.82549 -13980691.47147  21644547.731    21644547.492    21644551.359
 -15772082.51249 -12197851.36047  22261959.426    22261958.907    22261962.894
 -24058441.45149 -18729541.40047  21062233.517    21062233.709    21062237.183
 -10917514.26249  -8489723.19946  23327843.147    23327842.840    23327846.377
 02  1 10  2 20  0.0000000  0  8G20G24G13G10G27G 1G 4G 8
  -7854702.27049  -5664079.03445  24362041.021    24362038.951    24362048.069
 -20597027.59049 -16026205.71247  21710959.615    21710959.436    21710963.355
 -26808034.25149 -20856567.09648  20408722.842    20408722.965    20408724.993
  -6532746.08849  -5067853.90945  24418061.637    24418060.389    24418064.320
 -18028110.07249 -14029285.40847  21632680.612    21632680.417    21632684.292
 -15694751.77149 -12137593.65847  22276674.850    22276674.729    22276678.186
 -24012295.01349 -18693583.15847  21071014.958    21071015.410    21071018.691
 -11030123.38649  -8577470.55446  23306414.355    23306413.496    23306416.641
 02  1 10  2 20 30.0000000  0  8G20G24G13G10G27G 1G 4G 8
  -7757026.91949  -5587968.44045  24380628.024    24380626.983    24380633.892
 -20634107.33649 -16055099.02647  21703903.564    21703903.310    21703907.498
 -26777564.62249 -20832824.52748  20414520.998    20414521.281    20414523.093
  -6630407.87049  -5143953.97145  24399477.092    24399478.083    24399481.690
 -18090068.25749 -14077564.48847  21620890.312    21620889.789    21620894.085
 -15617261.08349 -12077211.31547  22291420.735    22291420.471    22291424.117
 -23965616.99749 -18657210.69647  21079897.541    21079897.780    21079901.303
 -11142586.35349  -8665104.01646  23285013.333    23285011.942    23285017.638
 02  1 10  2 21  0.0000000  0  8G20G24G13G10G27G 1G 4G 8
  -7659223.18049  -5511757.73245  24399239.682    24399239.388    24399244.447
 -20670652.87749 -16083576.06747  21696949.203    21696948.965    21696953.065
 -26746741.83049 -20808806.76648  20420386.356    20420386.481    20420388.567
  -6728039.96149  -5220030.87645  24380898.452    24380896.317    24380901.806
 -18151622.20049 -14125528.58047  21609176.928    21609176.688    21609180.617
 -15539613.37749 -12016706.61347  22306196.621    22306196.222    22306199.977
 -23918410.48549 -18620426.42347  21088880.623    21088880.492    21088884.491
 -11254902.01049  -8752622.69246  23263640.389    23263640.127    23263644.055
 02  1 10  2 21 30.0000000  0  8G20G24G13G10G27G 1G 4G 8
  -7561291.78549  -5435447.54945  24417875.709    24417875.357    24417880.706
 -20706662.31349 -16111635.37847  21690096.837    21690096.609    21690100.851
 -26715567.33449 -20784514.95648  20426318.651    20426319.044    20426320.963
  -6825640.61449  -5296083.33345  24362325.576    24362325.073    24362328.491
 -18212770.14449 -14173176.31247  21597540.851    21597540.694    21597544.447
 -15461809.91549 -11956080.55447  22321002.131    22321001.502    22321006.275
 -23870676.36949 -18583231.03547  21097964.074    21097964.143    21097967.812
 -11367067.76049  -8840024.54746  23242295.970    23242295.294    23242301.038
 02  1 10  2 22  0.0000000  0  8G20G24G13G10G27G 1G 4G 8
  -7463231.80449  -5359037.21845  24436535.756    24436534.469    24436539.916
 -20742132.16749 -16139274.23447  21683347.173    21683347.051    21683350.962
 -26684040.45149 -20759948.54948  20432318.044    20432318.280    20432320.360
  -6923206.86049  -5372108.97545  24343759.441    24343758.986    24343761.267
 -18273508.93649 -14220505.22047  21585982.680    21585982.375    21585986.255
 -15383850.19549 -11895332.73147  22335837.356    22335837.272    22335841.000
 -23822414.79749 -18545624.63647  21107147.912    21107148.195    21107151.895
 -11479079.17549  -8927306.14946  23220980.873    23220979.750    23220984.986
 02  1 10  2 22 30.0000000  0  8G20G24G13G10G27G 1G 4G 8
  -7365045.55149  -5282528.49745  24455219.986    24455219.484    24455224.207
 -20777062.67549 -16166492.81447  21676700.127    21676700.293    21676704.033
 -26652163.81349 -20735109.61348  20438383.991    20438384.341    20438386.250
  -7020739.12149  -5448108.08845  24325199.425    24325198.775    24325202.572
 -18333838.40549 -14267515.17747  21574502.288    21574501.733    21574505.956
 -15305736.92949 -11834465.26147  22350701.835    22350701.401    22350705.104
 -23773628.38849 -18507609.27747  21116431.670    21116431.898    21116435.842
 -11590935.14349  -9014466.62946  23199695.430    23199693.406    23199699.502
 02  1 10  2 23  0.0000000  0  8G20G24G13G10G27G 1G 4G 8
  -7266734.14849  -5205922.24745  24473927.842    24473927.253    24473931.823
 -20811452.70249 -16193290.24347  21670155.936    21670155.583    21670159.611
 -26619938.87349 -20709999.26748  20444516.207    20444516.416    20444518.435
  -7118236.06949  -5524079.73145  24306646.410    24306645.729    24306648.415
 -18393757.10149 -14314205.05047  21563100.070    21563099.787    21563103.686
 -15227471.50849 -11773479.22846  22365595.385    22365594.761    22365599.107
 -23724318.87949 -18469186.30647  21125814.972    21125815.252    21125818.973
 -11702633.04949  -9101503.94246  23178440.020    23178439.830    23178443.831
 02  1 10  2 23 30.0000000  0  8G20G24G13G10G27G 1G 4G 8
  -7168297.99649  -5129218.78445  24492659.697    24492659.215    24492662.860
 -20845299.86249 -16219664.66847  21663715.033    21663715.082    21663718.960
 -26587366.17649 -20684617.94948  20450714.569    20450714.835    20450716.784
  -7215696.05649  -5600022.54145  24288100.200    24288099.189    24288104.828
 -18453263.13049 -14360573.37047  21551776.408    21551776.026    21551780.226
 -15149054.81549 -11712375.32346  22380517.457    22380516.931    22380520.690
 -23674487.32649 -18430356.55347  21135297.607    21135297.898    21135301.653
 -11814169.96649  -9188415.81946  23157215.183    23157214.314    23157217.892
 02  1 10  2 24  0.0000000  0  8G20G24G13G10G27G 1G 4G 8
  -7069736.65849  -5052417.75345  24511415.341    24511416.270    24511418.486
 -20878601.92949 -16245614.33247  21657377.819    21657377.769    21657381.734
 -26554445.61249 -20658965.55948  20456979.109    20456979.298    20456981.410
  -7313116.36649  -5675934.45745  24269561.953    24269561.972    24269565.077
 -18512353.43449 -14406617.73847  21540531.866    21540531.620    21540535.661
 -15070486.74449 -11651153.45046  22395468.396    22395467.910    22395471.911
 -23624133.69949 -18391119.98347  21144879.630    21144879.954    21144883.569
 -11925541.73349  -9275198.99946  23136021.680    23136021.086    23136025.628
 02  1 10  2 24 30.0000000  0  8G20G24G13G10G27G 1G 4G 8
  -6971053.98749  -4975522.23345  24530193.709    24530191.971    24530197.619
 -20911360.17049 -16271140.24447  21651144.141    21651144.125    21651148.192
 -26521181.52949 -20633045.49648  20463309.054    20463309.326    20463311.445
  -7410498.84849  -5751816.90545  24251030.546    24251029.492    24251032.070
 -18571029.35749 -14452339.21047  21529366.221    21529365.640    21529370.009
 -14991771.50949 -11589816.92046  22410447.378    22410447.220    22410451.358
 -23573262.35449 -18351479.99447  21154560.188    21154560.612    21154564.135
 -12036748.83449  -9361853.85946  23114859.501    23114858.976    23114863.484
 02  1 10  2 25  0.0000000  0  8G20G24G13G10G27G 1G 4G 8
  -6872249.74749  -4898531.94545  24548995.529    24548994.894    24548997.540
 -20943571.81349 -16296240.23147  21645014.485    21645014.478    21645018.317
 -26487573.88749 -20606857.72348  20469704.372    20469704.468    20469706.751
  -7507841.17449  -5827668.04845  24232507.004    24232505.975    24232510.322
 -18629288.47549 -14497735.90547  21518279.802    21518279.495    21518283.392
 -14912909.21749 -11528365.78846  22425454.391    22425453.751    22425457.991
 -23521873.90249 -18311437.07147  21164339.108    21164339.393    21164343.034
 -12147787.46749  -9448377.45446  23093729.406    23093728.285    23093733.269
 02  1 10  2 25 30.0000000  0  8G20G24G13G10G27G 1G 4G 8
  -6773324.63749  -4821447.41945  24567820.489    24567819.582    24567826.861
 -20975235.56849 -16320913.29447  21638989.097    21638988.740    21638993.209
 -26453623.73749 -20580403.06248  20476164.853    20476164.816    20476167.096
  -7605141.85049  -5903486.69345  24213991.068    24213990.613    24213993.163
 -18687129.15749 -14542806.54547  21507273.095    21507272.795    21507276.799
 -14833901.03049 -11466800.97946  22440489.110    22440488.763    22440492.948
 -23469969.80049 -18270992.34047  21174216.113    21174216.565    21174220.063
 -12258654.78449  -9534767.55346  23072631.999    23072631.530    23072636.124
 02  1 10  2 26  0.0000000  0  8G20G24G13G10G27G 1G 4G 8
  -6674279.13749  -4744269.17145  24586668.101    24586666.905    24586673.440
 -21006349.45449 -16345157.88947  21633068.327    21633067.989    21633072.521
 -26419331.91449 -20553682.16248  20482690.376    20482690.518    20482692.724
  -7702398.83249  -5979271.38545  24195483.720    24195482.146    24195485.618
 -18744549.32749 -14587549.51347  21496346.375    21496345.750    21496350.052
 -14754747.79349 -11405123.14246  22455551.592    22455550.846    22455555.021
 -23417551.17849 -18230146.68347  21184191.151    21184191.559    21184194.895
 -12369348.08949  -9621022.06746  23051567.771    23051567.092    23051571.805
 02  1 10  2 26 30.0000000  0  8G20G24G13G10G27G 1G 4G 8
  -6575113.63649  -4666997.40245  24605538.612    24605538.360    24605542.908
 -21036911.64449 -16368972.59147  21627252.476    21627252.045    21627256.226
 -26384699.22949 -20526695.65448  20489280.746    20489280.766    20489283.118
  -7799610.50349  -6055020.73745  24176984.750    24176983.213    24176988.009
 -18801547.01149 -14631963.27447  21485500.051    21485499.528    21485503.788
 -14675450.24549 -11343332.86546  22470641.285    22470640.659    22470644.912
 -23364618.93349 -18188900.80547  21194263.860    21194264.106    21194267.793
 -12479863.80849  -9707138.19946  23030537.331    23030536.861    23030541.405
 02  1 10  2 27  0.0000000  0  8G20G24G13G10G27G 1G 4G 8
  -6475831.35949  -4589634.57445  24624431.612    24624432.060    24624435.020
 -21066923.18249 -16392358.21747  21621541.405    21621541.179    21621545.365
 -26349729.02149 -20499446.14648  20495935.348    20495935.499    20495937.585
  -7896778.14949  -6130735.73945  24158494.435    24158494.832    24158499.539
 -18858123.26749 -14676048.64647  21474733.927    21474733.411    21474737.641
 -14596011.97949 -11281432.93646  22485757.957    22485757.304    22485761.591
 -23311177.19949 -18147257.91847  21204433.524    21204433.666    21204437.368
 -12590201.92549  -9793115.94946  23009540.762    23009540.447    23009544.571
 02  1 10  2 27 30.0000000  0  8G20G24G13G10G27G 1G 4G 8
  -6376432.06949  -4512180.57845  24643346.752    24643344.737    24643348.484
 -21096381.43449 -16415312.70647  21615935.645    21615935.569    21615940.103
 -26314421.57649 -20471933.85348  20502654.119    20502654.328    20502656.390
  -7993899.37649  -6206414.66045  24140013.003    24140011.338    24140014.661
 -18914275.43249 -14719803.56147  21464048.514    21464048.299    21464052.310
 -14516433.16149 -11219423.48146  22500901.322    22500900.840    22500904.918
 -23257226.48949 -18105218.42947  21214700.017    21214700.149    21214703.931
 -12700358.67449  -9878952.35846  22988578.676    22988578.358    22988582.703
 02  1 10  2 28  0.0000000  0  8G20G24G13G10G27G 1G 4G 8
  -6276916.27649  -4434635.83845  24662283.979    24662282.417    24662287.056
 -21125285.44649 -16437835.31747  21610435.422    21610434.947    21610439.691
 -26278777.64449 -20444159.36048  20509436.951    20509437.222    20509439.135
  -8090972.21549  -6282055.80845  24121540.606    24121539.985    24121545.995
 -18970001.68449 -14763226.59047  21453444.150    21453443.740    21453447.793
 -14436714.66649 -11157305.17946  22516071.213    22516070.908    22516074.791
 -23202768.01249 -18062783.27147  21225063.120    21225063.105    21225066.944
 -12810331.05749  -9964645.10546  22967651.592    22967651.286    22967655.091
 02  1 10  2 28 30.0000000  0  8G20G24G13G10G27G 1G 4G 8
  -6177285.67749  -4357001.64645  24681243.170    24681243.840    24681246.768
 -21153633.57249 -16459924.78047  21605040.896    21605040.392    21605045.190
 -26242799.08949 -20416124.12548  20516283.432    20516283.463    20516285.616
  -8187995.66249  -6357658.47845  24103077.649    24103076.877    24103079.366
 -19025301.23149 -14806317.12547  21442920.956    21442920.515    21442924.944
 -14356858.13849 -11095079.33446  22531267.325    22531267.118    22531271.411
 -23147803.97849 -18019954.18047  21235522.388    21235522.624    21235526.293
 -12920117.00849 -10050192.59746  22946759.997    22946759.289    22946763.831
 02  1 10  2 29  0.0000000  0  8G20G24G13G10G27G 1G 4G 8
  -6077540.29649  -4279277.99445  24700224.153    24700223.161    24700227.968
 -21181423.99249 -16481579.66047  21599752.535    21599752.532    21599756.496
 -26206486.18949 -20387828.36448  20523193.544    20523193.829    20523195.899
  -8284967.94349  -6433221.29345  24084624.474    24084623.632    24084626.789
 -19080171.87049 -14849073.45047  21432479.467    21432479.373    21432483.214
 -14276863.90349 -11032746.17046  22546489.718    22546490.130    22546493.396
 -23092335.28049 -17976731.83947  21246077.772    21246077.806    21246081.678
 -13029713.06449 -10135592.09446  22925904.584    22925902.998    22925908.697
 02  1 10  2 29 30.0000000  0  7G24G13G10G27G 1G 4G 8
 -21208656.32849 -16502799.67147  21594570.450    21594570.140    21594574.709
 -26169840.80649 -20359273.52348  20530166.955    20530167.121    20530169.200
  -8381888.43249  -6508743.79245  24066181.063    24066182.139    24066185.213
 -19134613.01849 -14891495.10847  21422119.660    21422119.475    21422123.354
 -14196734.13149 -10970307.40846  22561738.031    22561737.484    22561742.115
 -23036364.42349 -17933118.20647  21256728.734    21256729.043    21256732.482
 -13139117.46949 -10220842.27446  22905085.533    22905085.229    22905089.752
 02  1 10  2 30  0.0000000  0  7G24G13G10G27G 1G 4G 8
 -21235329.93649 -16523584.30947  21589494.588    21589494.414    21589498.761
 -26132864.92649 -20330461.14848  20537203.242    20537203.310    20537205.496
  -8478756.31349  -6584225.17445  24047747.682    24047745.053    24047750.790
 -19188624.05149 -14933581.60447  21411841.668    21411841.541    21411845.200
 -14116470.54249 -10907764.36746  22577011.708    22577012.180    22577015.362
 -22979893.68749 -17889115.05847  21267474.799    21267474.953    21267478.473
 -13248328.43349 -10305941.70846  22884303.477    22884302.957    22884308.180
 02  1 10  2 30 30.0000000  0  7G24G13G10G27G 1G 4G 8
 -21261442.01449 -16543931.38947  21584525.678    21584525.624    21584529.995
 -26095558.33649 -20301391.07948  20544302.450    20544302.575    20544304.480
  -8575568.64949  -6659663.41845  24029324.878    24029325.174    24029327.569
 -19242202.06249 -14975330.68347  21401646.110    21401645.659    21401649.595
 -14036072.82649 -10845116.80246  22592310.975    22592310.559    22592314.396
 -22922923.37749 -17844722.62947  21278315.868    21278315.928    21278319.842
 -13357341.42749 -10390886.88046  22863558.964    22863558.428    22863563.056
 02  1 10  2 31  0.0000000  0  7G24G13G10G27G 1G 4G 8
 -21286992.90749 -16563841.18047  21579663.565    21579663.380    21579667.617
 -26057923.38449 -20272065.14748  20551464.138    20551464.377    20551466.451
  -8672325.43749  -6735058.26545  24010912.800    24010910.902    24010917.221
 -19295346.93149 -15016742.25147  21391532.965    21391532.610    21391536.521
 -13955543.55649 -10782366.73446  22607635.244    22607634.720    22607638.900
 -22865456.41049 -17799943.19947  21289251.470    21289251.608    21289255.494
 -13466155.13149 -10475676.76446  22842852.297    22842852.093    22842856.358
 02  1 10  2 31 30.0000000  0  7G24G13G10G27G 1G 4G 8
 -21311980.31249 -16583311.89347  21574908.582    21574908.552    21574912.821
 -26019960.22149 -20242483.46248  20558688.317    20558688.476    20558690.524
  -8769024.27449  -6810408.03245  23992511.505    23992511.200    23992513.480
 -19348056.28949 -15057814.46447  21381502.711    21381502.394    21381506.218
 -13874882.88749 -10719514.28746  22622984.440    22622984.094    22622988.456
 -22807493.70849 -17754777.48147  21300281.426    21300281.902    21300285.176
 -13574766.25249 -10560308.79846  22822184.292    22822183.651    22822188.369
 02  1 10  2 32  0.0000000  0  7G24G13G10G27G 1G 4G 8
 -21336403.71949 -16602343.12947  21570261.013    21570260.929    21570265.357
 -25981670.88449 -20212647.61948  20565974.554    20565974.752    20565976.852
  -8865664.22049  -6885711.84345  23974121.254    23974120.522    23974125.597
 -19400329.37449 -15098546.72247  21371555.455    21371555.100    21371558.903
 -13794092.58049 -10656560.82046  22638358.328    22638358.201    22638361.801
 -22749037.46349 -17709227.18747  21311405.306    21311405.251    21311409.303
 -13683172.61449 -10644781.27446  22801555.236    22801555.442    22801558.912
 02  1 10  2 32 30.0000000  0  7G24G13G10G27G 1G 4G 8
 -21360262.62349 -16620934.49047  21565720.811    21565720.632    21565725.402
 -25943057.33649 -20182559.13848  20573322.476    20573322.605    20573324.598
  -8962244.71549  -6960969.36445  23955742.719    23955742.734    23955746.009
 -19452165.64049 -15138938.59547  21361691.275    21361690.969    21361694.678
 -13713174.33249 -10593507.65546  22653756.656    22653756.950    22653760.417
 -22690090.14149 -17663294.23247  21322622.547    21322622.795    21322626.547
 -13791372.26449 -10729092.67346  22780965.570    22780965.006    22780969.570
 02  1 10  2 33  0.0000000  0  7G24G13G10G27G 1G 4G 8
 -21383555.79449 -16639085.01847  21561288.293    21561288.021    21561292.559
 -25904120.56349 -20152218.79748  20580731.915    20580731.946    20580734.075
  -9058764.59549  -7036179.64445  23937375.274    23937373.491    23937378.050
 -19503563.83749 -15178989.12447  21351910.565    21351910.420    21351914.251
 -13632129.40149 -10530355.77746  22669179.078    22669178.694    22669182.062
 -22630653.76449 -17616980.19647  21333932.901    21333933.095    21333936.870
 -13899362.66149 -10813241.01646  22760415.718    22760415.252    22760419.906
 02  1 10  2 33 30.0000000  0  7G24G13G10G27G 1G 4G 8
 -21406280.92249 -16656792.91347  21556963.834    21556963.545    21556968.137
 -25864860.59149 -20121626.61348  20588202.854    20588203.134    20588204.940
  -9155220.68249  -7111340.21645  23919020.650    23919021.156    23919024.770
 -19554521.32249 -15218696.23547  21342213.663    21342213.063    21342217.286
 -13550957.67649 -10467105.09346  22684625.504    22684625.261    22684629.063
 -22570728.56049 -17570285.25547  21345336.310    21345336.631    21345340.378
 -14007139.84049 -10897223.22146  22739906.525    22739905.851    22739910.473
 02  1 10  2 34  0.0000000  0  7G24G13G10G27G 1G 4G 8
 -21428439.06849 -16674059.00147  21552747.276    21552746.904    21552751.083
 -25825280.51449 -20090784.99448  20595734.721    20595734.700    20595736.725
  -9251614.03649  -7186451.89145  23900677.698    23900676.106    23900679.105
 -19605039.11449 -15258060.72547  21332600.416    21332599.948    21332603.893
 -13469662.47149 -10403758.19846  22700095.513    22700095.301    22700099.418
 -22510318.90349 -17523212.81647  21356831.928    21356831.843    21356835.588
 -14114703.38249 -10981038.94446  22719437.821    22719437.101    22719441.552
 02  1 10  2 34 30.0000000  0  7G24G13G10G27G 1G 4G 8
 -21450027.56349 -16690881.21747  21548639.097    21548638.788    21548643.169
 -25785379.97549 -20059693.67048  20603327.472    20603327.633    20603329.831
  -9347941.29649  -7261512.10445  23882347.154    23882347.935    23882351.105
 -19655113.93849 -15297080.05147  21323071.541    21323070.985    21323074.886
 -13388243.08049 -10340314.54146  22715589.193    22715588.965    22715592.755
 -22449424.71749 -17475762.83147  21368419.718    21368420.111    21368423.797
 -14222048.71649 -11064684.65346  22699010.649    22699010.202    22699014.397
 02  1 10  2 35  0.0000000  0  7G24G13G10G27G 1G 4G 8
 -21471045.12749 -16707258.54047  21544639.634    21544639.526    21544643.753
 -25745160.23449 -20028353.61748  20610981.054    20610981.155    20610983.340
  -9444201.09949  -7336519.68945  23864029.487    23864027.138    23864032.775
 -19704744.53749 -15335753.22547  21313627.082    21313626.803    21313630.841
 -13306700.59349 -10276774.95846  22731106.236    22731106.163    22731109.488
 -22388047.62449 -17427936.55147  21380099.460    21380099.695    21380102.980
 -14329173.36949 -11148158.39446  22678625.449    22678624.855    22678629.181
 02  1 10  2 35 30.0000000  0  7G24G13G10G27G 1G 4G 8
 -21491491.14649 -16723190.50647  21540748.995    21540749.090    21540752.838
 -25704622.89449 -19996766.07948  20618695.045    20618695.084    20618697.266
  -9540392.43249  -7411473.95545  23845724.609    23845725.408    23845725.072
 -19753930.18249 -15374079.68547  21304267.392    21304267.223    21304271.165
 -13225036.47249 -10213140.58846  22746646.212    22746645.725    22746649.833
 -22326190.11749 -17379735.92347  21391870.572    21391870.656    21391874.652
 -14436075.11049 -11231458.43446  22658282.653    22658282.288    22658286.899
 02  1 10  2 36  0.0000000  0  7G24G13G10G27G 1G 4G 8
 -21511366.15649 -16738677.52747  21536966.935    21536967.058    21536970.894
 -25663769.98549 -19964932.64948  20626469.106    20626469.212    20626471.235
  -9636514.74449  -7486374.47445  23827433.253    23827432.672    23827437.547
 -19802670.75549 -15412059.33247  21294992.372    21294992.004    21294995.947
 -13143253.16249 -10149413.34846  22762209.100    22762209.091    22762212.622
 -22263855.07249 -17331163.18647  21403732.598    21403732.934    21403736.482
 -14542752.50049 -11314583.66146  22637982.640    22637982.441    22637987.438
 02  1 10  2 36 30.0000000  0  7G24G13G10G27G 1G 4G 8
 -21530668.13149 -16753718.02747  21533293.993    21533293.941    21533297.792
 -25622602.23849 -19932853.88648  20634303.096    20634303.329    20634305.200
  -9732565.93549  -7561219.47445  23809155.234    23809154.955    23809159.412
 -19850964.29149 -15449690.64447  21285802.414    21285802.136    21285805.990
 -13061350.93949 -10085593.45546  22777794.601    22777794.281    22777798.752
 -22201043.94349 -17282219.47247  21415685.158    21415685.390    21415688.966
 -14649202.13549 -11397531.41746  22617726.037    22617725.584    22617730.044
 02  1 10  2 37  0.0000000  0  7G24G13G10G27G 1G 4G 8
 -21549397.04249 -16768311.98947  21529730.019    21529729.648    21529733.661
 -25581121.67149 -19900531.36748  20642196.556    20642196.655    20642198.822
  -9828545.38349  -7636008.70945  23790890.918    23790890.279    23790893.281
 -19898810.63449 -15486973.48647  21276697.498    21276697.079    21276701.046
 -12979331.89149 -10021682.52546  22793402.387    22793402.586    22793406.067
 -22137759.31849 -17232906.80547  21427727.827    21427728.053    21427731.818
 -14755422.40749 -11480300.43846  22597512.993    22597512.198    22597517.355
 02  1 10  2 37 30.0000000  0  7G24G13G10G27G 1G 4G 8
 -21567551.14149 -16782458.04247  21526275.406    21526275.170    21526279.172
 -25539328.59349 -19867965.33848  20650149.499    20650149.579    20650151.719
  -9924450.84049  -7710740.17845  23772640.728    23772640.563    23772646.092
 -19946207.82849 -15523906.34347  21267678.038    21267677.583    21267681.450
 -12897196.29549  -9957680.79546  22809032.239    22809031.816    22809035.278
 -22074002.64649 -17183226.30847  21439860.348    21439860.533    21439864.112
 -14861409.96549 -11562888.12546  22577344.179    22577343.031    22577348.373
 02  1 10  2 38  0.0000000  0  8G24G13G10G27G 1G 4G 8G 2
 -21585130.89649 -16796156.55347  21522930.050    21522929.936    21522933.613
 -25497226.03449 -19835158.15048  20658161.315    20658161.472    20658163.455
 -10020282.45549  -7785414.12745  23754404.675    23754404.308    23754407.402
 -19993156.13649 -15560489.42247  21258744.068    21258743.768    21258747.525
 -12814946.68749  -9893590.19346  22824683.818    22824683.321    22824686.880
 -22009777.23449 -17133180.56047  21452082.097    21452082.083    21452086.048
 -14967163.57249 -11645293.52046  22557219.879    22557219.102    22557223.899
  -5795561.34149  -4160995.34145  24829877.406    24829876.144    24829882.441
 02  1 10  2 38 30.0000000  0  8G24G13G10G27G 1G 4G 8G 2
 -21602132.83749 -16809404.82147  21519694.650    21519694.216    21519698.356
 -25454812.10349 -19802108.33448  20666232.426    20666232.635    20666234.628
 -10116036.05649  -7860027.33245  23736183.445    23736181.543    23736186.740
 -20039651.70249 -15596719.71447  21249896.248    21249895.993    21249899.694
 -12732581.48649  -9829409.52746  22840357.475    22840357.130    22840360.953
 -21945082.22549 -17082768.89347  21464393.170    21464393.420    21464397.306
 -15072677.96849 -11727512.51546  22537141.147    22537140.712    22537145.513
  -5872938.44749  -4221289.19945  24815153.054    24815153.127    24815157.845
 02  1 10  2 39  0.0000000  0  8G24G13G10G27G 1G 4G 8G 2
 -21618557.27649 -16822203.08847  21516569.104    21516568.729    21516572.990
 -25412088.97449 -19768817.58348  20674362.395    20674362.707    20674364.648
 -10211710.50949  -7934578.84145  23717977.170    23717977.906    23717980.732
 -20085694.05649 -15632596.85147  21241134.684    21241134.409    21241138.271
 -12650102.51249  -9765140.21846  22856052.847    22856052.524    22856056.260
 -21879920.63249 -17031993.65447  21476792.998    21476793.255    21476796.974
 -15177951.42249 -11809543.76146  22517108.213    22517107.501    22517111.920
  -5950267.14449  -4281545.34445  24800438.028    24800437.484    24800442.358
 02  1 10  2 39 30.0000000  0  8G24G13G10G27G 1G 4G 8G 2
 -21634404.08849 -16834551.25647  21513553.461    21513553.087    21513557.396
 -25369059.07149 -19735287.79348  20682550.687    20682550.788    20682552.869
 -10307305.92149  -8009068.74045  23699786.031    23699785.360    23699789.088
 -20131283.64149 -15668121.18547  21232459.321    21232459.044    21232462.615
 -12567512.25149  -9700784.19446  22871769.193    22871768.484    22871772.841
 -21814295.47449 -16980857.19247  21489281.113    21489281.320    21489285.404
 -15282982.51249 -11891386.15546  22497121.433    22497121.297    22497125.311
  -6027546.25749  -4341762.85645  24785732.430    24785731.705    24785736.776
 02  1 10  2 40  0.0000000  0  8G24G13G10G27G 1G 4G 8G 2
 -21649671.28949 -16846447.78147  21510648.213    21510647.948    21510652.251
 -25325722.01949 -19701518.66048  20690797.481    20690797.479    20690799.842
 -10402819.24849  -8083494.69445  23681610.407    23681609.813    23681612.875
 -20176417.73449 -15703290.58647  21223870.567    21223869.901    21223874.070
 -12484810.13949  -9636341.02146  22887506.887    22887506.809    22887510.188
 -21748207.25549 -16929359.91047  21501857.273    21501857.434    21501861.461
 -15387767.13749 -11973036.49646  22477181.530    22477181.111    22477185.745
  -6104771.45949  -4401938.35645  24771036.963    24771036.568    24771041.980
 02  1 10  2 40 30.0000000  0  8G24G13G10G27G 1G 4G 8G 2
 -21664360.03949 -16857893.56347  21507853.061    21507853.013    21507857.244
 -25282081.12849 -19667512.77348  20699102.024    20699102.360    20699104.162
 -10498250.73449  -8157856.88545  23663450.631    23663448.685    23663453.037
 -20221097.36749 -15738105.86547  21215368.284    21215367.816    21215371.611
 -12401999.15449  -9571812.97746  22903265.403    22903264.350    22903268.483
 -21681660.29649 -16877505.16047  21514520.778    21514521.057    21514525.021
 -15492304.76849 -12054494.37146  22457288.654    22457287.903    22457292.145
  -6181942.25049  -4462071.43545  24756351.939    24756351.475    24756356.288
 02  1 10  2 41  0.0000000  0  8G24G13G10G27G 1G 4G 8G 2
 -21678468.08849 -16868886.85647  21505168.335    21505168.372    21505172.784
 -25238136.24349 -19633270.01048  20707464.445    20707464.740    20707466.568
 -10593597.43549  -8232152.97745  23645306.589    23645307.015    23645309.904
 -20265319.92949 -15772564.98747  21206952.950    21206952.582    21206956.424
 -12319078.93549  -9507199.84446  22919044.579    22919043.386    22919048.284
 -21614655.01249 -16825293.28247  21527271.409    21527271.620    21527275.276
 -15596591.27849 -12135756.56946  22437443.548    22437442.931    22437447.287
  -6259054.47349  -4522158.90545  24741677.976    24741677.113    24741681.811
 02  1 10  2 41 30.0000000  0  8G24G13G10G27G 1G 4G 8G 2
 -21691995.13749 -16879427.42347  21502594.236    21502594.054    21502598.477
 -25193889.30749 -19598791.87748  20715884.382    20715884.502    20715886.618
 -10688858.61449  -8306382.47945  23627179.177    23627179.344    23627182.073
 -20309085.12149 -15806667.71547  21198624.699    21198624.318    21198628.124
 -12236051.12049  -9442502.87346  22934844.135    22934844.128    22934847.855
 -21547194.49749 -16772726.67447  21540108.717    21540108.973    21540112.816
 -15700625.12449 -12216821.90046  22417646.620    22417646.286    22417650.152
  -6336106.34949  -4582199.33045  24727015.289    24727015.314    24727020.184
 02  1 10  2 42  0.0000000  0  8G24G13G10G27G 1G 4G 8G 2
 -21704940.96549 -16889515.08647  21500130.764    21500130.449    21500135.006
 -25149341.44149 -19564079.25448  20724361.554    20724361.583    20724363.722
 -10784033.02749  -8380544.30245  23609068.044    23609067.173    23609070.784
 -20352392.19949 -15840413.46947  21190383.622    21190383.293    21190387.202
 -12152917.11249  -9377723.15146  22950664.129    22950664.026    22950668.620
 -21479280.99949 -16719807.08947  21553032.254    21553032.876    21553036.231
 -15804403.70649 -12297688.30346  22397898.267    22397897.218    22397901.813
  -6413095.45949  -4642190.85345  24712364.792    24712364.666    24712369.370
 02  1 10  2 42 30.0000000  0  8G24G13G10G27G 1G 4G 8G 2
 -21717304.60749 -16899149.09747  21497778.031    21497778.038    21497782.269
 -25104493.91749 -19529133.13248  20732895.776    20732895.955    20732897.731
 -10879119.00149  -8454637.28845  23590973.767    23590973.529    23590973.816
 -20395239.97549 -15873801.32447  21182229.961    21182229.837    21182233.428
 -12069677.78949  -9312861.35946  22966504.074    22966503.680    22966507.871
 -21410916.28549 -16666535.91147  21566041.733    21566042.190    21566045.597
 -15907924.36949 -12378353.74046  22378198.961    22378198.546    22378202.707
  -6490019.10749  -4702131.37545  24697726.829    24697725.920    24697730.893
 02  1 10  2 43  0.0000000  0  8G24G13G10G27G 1G 4G 8G 2
 -21729085.59449 -16908329.08947  21495536.192    21495536.130    21495540.718
 -25059347.94449 -19493954.45048  20741486.798    20741486.927    20741489.191
 -10974114.97549  -8528660.07845  23572896.599    23572895.804    23572901.760
 -20437627.43549 -15906830.49547  21174163.914    21174163.652    21174167.385
 -11986334.38149  -9247918.46146  22982363.720    22982363.481    22982367.815
 -21342102.41649 -16612914.74447  21579136.602    21579136.615    21579140.878
 -16011184.64049 -12458816.28746  22358549.179    22358549.099    22358552.834
  -6566874.56349  -4762018.74645  24683101.652    24683101.624    24683106.840
 02  1 10  2 43 30.0000000  0  8G24G13G10G27G 1G 4G 8G 2
 -21740283.15649 -16917054.47047  21493405.390    21493405.085    21493409.489
 -25013904.74749 -19458544.17048  20750134.358    20750134.411    20750136.706
 -11069019.08849  -8602611.32446  23554836.971    23554837.295    23554840.662
 -20479553.72449 -15939500.31147  21166185.536    21166185.005    21166188.950
 -11902887.93549  -9182895.27446  22998243.075    22998242.678    22998246.562
 -21272841.77449 -16558945.44047  21592316.477    21592316.750    21592320.486
 -16114182.03149 -12539073.98846  22338949.483    22338949.027    22338953.394
  -6643659.30849  -4821851.03045  24668490.109    24668490.040    24668494.487
 02  1 10  2 44  0.0000000  0  8G24G13G10G27G 1G 4G 8G 2
 -21750896.39049 -16925324.53147  21491385.747    21491385.443    21491389.780
 -24968164.72749 -19422902.59548  20758838.362    20758838.525    20758840.544
 -11163829.64449  -8676489.68345  23536795.075    23536796.235    23536798.595
 -20521017.20949 -15971809.50447  21158295.295    21158294.917    21158298.687
 -11819338.89649  -9117792.16046  23014141.879    23014142.051    23014145.741
 -21203135.69749 -16504629.04047  21605581.082    21605581.067    21605585.093
 -16216913.22949 -12619124.26446  22319400.317    22319400.011    22319404.059
  -6720369.94049  -4881625.56545  24653892.575    24653891.046    24653897.626
 02  1 10  2 44 30.0000000  0  8G24G13G10G27G 1G 4G 8G 2
 -21760925.34449 -16933139.30747  21489477.324    21489476.965    21489481.356
 -24922130.30649 -19387031.61748  20767598.424    20767598.611    20767600.764
 -11258545.84649  -8750294.48945  23518771.234    23518771.154    23518775.561
 -20562017.68949 -16003757.91047  21150493.145    21150492.429    21150496.441
 -11735688.95149  -9052610.40146  23030059.973    23030060.581    23030063.670
 -21132987.27049 -16449967.95647  21618929.817    21618930.136    21618933.859
 -16319376.45649 -12698965.72247  22299902.262    22299901.629    22299906.420
  -6797004.77249  -4941341.03645  24639309.467    24639309.351    24639313.504
 02  1 10  2 45  0.0000000  0  8G24G13G10G27G 1G 4G 8G 2
 -21770369.17549 -16940498.14547  21487680.201    21487680.278    21487684.279
 -24875802.17249 -19350931.77648  20776414.377    20776414.518    20776416.681
 -11353166.05549  -8824024.50245  23500765.358    23500766.188    23500767.844
 -20602554.42549 -16035344.95847  21142779.220    21142779.099    21142782.790
 -11651939.32249  -8987350.97046  23045996.967    23045997.008    23046000.951
 -21062398.71649 -16394963.91647  21632362.382    21632362.997    21632366.589
 -16421569.43849 -12778596.59947  22280455.552    22280454.932    22280458.920
  -6873561.27449  -5000995.44445  24624741.252    24624740.037    24624746.113
 02  1 10  2 45 30.0000000  0  8G24G13G10G27G 1G 4G 8G 2
 -21779227.32649 -16947400.60747  21485994.609    21485994.426    21485998.831
 -24829181.32449 -19314603.84548  20785286.009    20785286.156    20785288.265
 -11447688.43849  -8897678.28445  23482778.340    23482777.981    23482781.395
 -20642626.27649 -16066569.75547  21135153.824    21135153.218    21135157.354
 -11568090.61049  -8922014.33146  23061952.955    23061952.562    23061956.486
 -20991372.06649 -16339618.50047  21645878.365    21645878.750    21645882.586
 -16523489.26549 -12858014.63047  22261060.881    22261060.309    22261064.878
  -6950036.48649  -5060586.53545  24610188.562    24610187.991    24610193.181
 02  1 10  2 46  0.0000000  0  8G24G13G10G27G 1G 4G 8G 2
 -21787499.36049 -16953846.35847  21484420.476    21484420.305    21484424.562
 -24782269.41149 -19278049.10948  20794213.068    20794213.076    20794215.271
 -11542111.31849  -8971254.54645  23464810.313    23464809.470    23464812.562
 -20682232.42549 -16097431.66847  21127616.948    21127616.525    21127620.266
 -11484143.92349  -8856601.34946  23077927.408    23077927.273    23077931.074
 -20919909.62049 -16283933.50647  21659477.228    21659477.606    21659481.450
 -16625133.71249 -12937218.08747  22241718.661    22241718.599    22241722.345
  -7026427.87249  -5120112.28945  24595651.819    24595650.905    24595656.053
 02  1 10  2 46 30.0000000  0  8G24G13G10G27G 1G 4G 8G 2
 -21795185.36649 -16959835.46247  21482957.912    21482957.798    21482962.034
 -24735068.24549 -19241268.98348  20803195.107    20803195.128    20803197.410
 -11636433.61749  -9044752.42246  23446861.386    23446861.705    23446865.083
 -20721372.46749 -16127930.38747  21120168.840    21120168.452    21120172.383
 -11400101.04249  -8791113.41446  23093920.316    23093919.612    23093924.126
 -20848014.13649 -16227911.08247  21673158.545    21673158.844    21673162.923
 -16726500.68049 -13016205.32647  22222429.130    22222428.243    22222433.042
  -7102733.62749  -5179571.32545  24581131.308    24581130.547    24581136.566
 02  1 10  2 47  0.0000000  0  8G24G13G10G27G 1G 4G 8G 2
 -21802284.04849 -16965366.90847  21481607.099    21481606.903    21481611.021
 -24687578.37449 -19204263.89048  20812232.095    20812232.132    20812234.314
 -11730653.27749  -9118170.33246  23428932.047    23428930.759    23428935.196
 -20760044.99449 -16158064.80748  21112809.728    21112809.356    21112813.189
 -11315962.10349  -8725550.62746  23109931.494    23109930.808    23109935.741
 -20775687.34849 -16171552.57247  21686921.859    21686922.106    21686926.056
 -16827587.00649 -13094973.87347  22203193.003    22203192.240    22203196.930
  -7178950.20549  -5238960.87145  24566627.803    24566626.738    24566632.295
 02  1 10  2 47 30.0000000  0  8G24G13G10G27G 1G 4G 8G 2
 -21808795.41549 -16970440.70847  21480368.023    21480367.921    21480372.067
 -24639800.77149 -19167034.59248  20821323.897    20821323.907    20821326.402
 -11824768.71049  -9191507.00546  23411022.279    23411022.117    23411024.514
 -20798249.22949 -16187834.32348  21105539.693    21105539.269    21105542.975
 -11231728.10049  -8659913.77546  23125960.664    23125960.441    23125964.346
 -20702931.36049 -16114859.62047  21700766.862    21700766.822    21700771.062
 -16928390.12549 -13173521.73947  22184010.761    22184009.750    22184014.331
  -7255075.17849  -5298279.02845  24552141.756    24552140.767    24552146.816
 02  1 10  2 48  0.0000000  0  8G24G13G10G27G 1G 4G 8G 2
 -21814719.21649 -16975056.66547  21479240.786    21479240.611    21479244.893
 -24591736.91149 -19129582.23848  20830470.145    20830470.455    20830472.540
 -11918778.45749  -9264761.33246  23393132.922    23393131.012    23393135.131
 -20835984.55149 -16217238.45348  21098358.872    21098358.700    21098362.266
 -11147400.26949  -8594203.79846  23142007.716    23142008.001    23142011.755
 -20629748.78449 -16057834.26447  21714693.045    21714693.321    21714697.421
 -17028907.82149 -13251847.20347  22164882.800    22164882.121    22164886.461
  -7331106.22649  -5357524.01545  24537673.542    24537672.873    24537676.828
 02  1 10  2 48 30.0000000  0  8G24G13G10G27G 1G 4G 8G 2
 -21820054.93449 -16979214.37847  21478225.496    21478225.304    21478229.218
 -24543388.22149 -19091907.93548  20839670.621    20839670.966    20839672.909
 -12012681.04949  -9337932.16946  23375263.772    23375262.632    23375266.402
 -20873250.45149 -16246276.79848  21091267.382    21091267.110    21091270.846
 -11062979.78349  -8528421.62246  23158072.466    23158072.920    23158076.077
 -20556141.99749 -16000478.35747  21728699.910    21728700.134    21728704.233
 -17129137.88349 -13329948.53347  22145809.564    22145809.085    22145813.457
  -7407040.99349  -5416693.96645  24523223.559    24523222.217    24523227.870
 02  1 10  2 49  0.0000000  0  8G24G13G10G27G 1G 4G 8G 2
 -21824802.44549 -16982913.74847  21477322.092    21477321.909    21477325.986
 -24494756.30549 -19054012.93848  20848924.998    20848925.199    20848927.381
 -12106475.16649  -9411018.47546  23357415.307    23357414.668    23357418.298
 -20910046.38249 -16274948.93748  21084265.361    21084265.157    21084269.109
 -10978468.01949  -8462568.32246  23174154.606    23174154.417    23174158.214
 -20482113.58449 -15942793.90847  21742787.090    21742787.232    21742791.197
 -17229078.18849 -13407824.07547  22126791.428    22126790.791    22126795.441
  -7482877.06949  -5475787.00645  24508792.531    24508791.407    24508796.647
 02  1 10  2 49 30.0000000  0  8G24G13G10G27G 1G 4G 8G 2
 -21828960.73449 -16986153.98147  21476530.801    21476530.607    21476534.830
 -24445841.47549 -19015897.48948  20858233.185    20858233.216    20858235.422
 -12200158.65349  -9484018.56946  23339587.943    23339585.621    23339591.028
 -20946370.95149 -16303253.77948  21077353.020    21077352.692    21077356.732
 -10893865.24949  -8396644.11846  23190253.983    23190253.631    23190257.011
 -20407665.41349 -15884782.37447  21756954.085    21756954.374    21756958.573
 -17328725.38649 -13485471.22747  22107829.136    22107828.769    22107833.174
  -7558611.03949  -5534800.48045  24494380.808    24494379.574    24494385.469
 02  1 10  2 50  0.0000000  0  8G24G13G10G27G 1G 4G 8G 2
 -21832530.95849 -16988935.98947  21475851.406    21475851.008    21475855.541
 -24396646.16549 -18977563.48648  20867594.774    20867595.134    20867597.064
 -12293730.99349  -9556932.08546  23321781.724    23321782.176    23321784.629
 -20982224.59649 -16331191.66648  21070530.245    21070529.896    21070533.669
 -10809173.63349  -8330650.66646  23206370.290    23206370.234    23206374.091
 -20332800.68649 -15826446.24947  21771200.410    21771200.631    21771204.557
 -17428078.26449 -13562889.03847  22088922.888    22088922.357    22088926.727
  -7634241.49549  -5593733.31945  24479988.890    24479988.337    24479992.738
 02  1 10  2 50 30.0000000  0  8G24G13G10G27G 1G 4G 8G 2
 -21835511.90949 -16991258.81747  21475284.110    21475283.890    21475288.084
 -24347170.80549 -18939011.25748  20877009.650    20877009.817    20877011.849
 -12387189.59149  -9629756.96046  23303997.258    23303996.179    23304000.073
 -21017605.53549 -16358761.20648  21063797.465    21063797.217    21063800.844
 -10724393.17549  -8264587.99746  23222503.413    23222503.056    23222507.978
 -20257520.91649 -15767786.72047  21785525.699    21785525.884    21785529.813
 -17527133.35149 -13640074.80347  22070073.348    22070073.236    22070077.341
  -7709765.05849  -5652582.83545  24465617.033    24465615.567    24465621.320
 02  1 10  2 51  0.0000000  0  8G24G13G10G27G 1G 4G 8G 2
 -21837903.46449 -16993122.38247  21474828.975    21474828.745    21474832.830
 -24297416.68249 -18900241.81148  20886477.550    20886477.503    20886479.705
 -12480532.87349  -9702491.95446  23286234.474    23286233.806    23286237.341
 -21052513.07649 -16385961.86948  21057154.765    21057154.325    21057158.302
 -10639524.86649  -8198456.86946  23238653.269    23238652.965    23238656.604
 -20181828.50749 -15708805.64847  21799929.586    21799930.042    21799933.622
 -17625888.41449 -13717026.77647  22051280.809    22051280.626    22051285.082
  -7785179.27849  -5711347.15945  24451266.262    24451266.061    24451269.833
 02  1 10  2 51 30.0000000  0  8G24G13G10G27G 1G 4G 8G 2
 -21839704.32149 -16994525.66047  21474486.333    21474486.173    21474490.264
 -24247383.98749 -18861255.30248  20895998.453    20895998.581    20896000.679
 -12573758.47549  -9775135.27346  23268494.202    23268493.497    23268495.984
 -21086945.96549 -16412792.67348  21050602.369    21050602.151    21050605.963
 -10554568.98649  -8132257.51346  23254819.830    23254819.543    23254823.560
 -20105725.29749 -15649504.47547  21814411.566    21814411.997    21814415.776
 -17724340.29649 -13793742.51347  22032546.037    22032545.036    22032550.222
  -7860480.79449  -5770023.67845  24436936.883    24436936.041    24436941.274
 02  1 10  2 52  0.0000000  0  8G24G13G10G27G 1G 4G 8G 2
 -21840915.33949 -16995469.32447  21474255.849    21474255.572    21474260.190
 -24197075.08049 -18822053.55948  20905571.879    20905572.034    20905574.160
 -12666865.86549  -9847686.49046  23250776.448    23250776.332    23250780.439
 -21120904.41949 -16439253.79048  21044140.316    21044140.035    21044143.621
 -10469527.44349  -8065991.40546  23271002.824    23271002.160    23271006.816
 -20029214.59249 -15589885.77047  21828971.156    21828971.867    21828975.503
 -17822487.40249 -13870220.75747  22013869.306    22013868.896    22013873.111
  -7935667.87649  -5828611.00245  24422629.086    24422627.667    24422633.228
 02  1 10  2 52 30.0000000  0  8G24G13G10G27G 1G 4G 8G 2
 -21841536.33449 -16995953.22347  21474137.690    21474137.514    21474141.808
 -24146491.31749 -18782637.64347  20915197.642    20915197.740    20915200.160
 -12759853.40349  -9920144.28446  23233081.615    23233081.322    23233084.130
 -21154388.17949 -16465345.01448  21037768.551    21037768.246    21037772.033
 -10384401.39649  -7999659.45246  23287201.854    23287201.446    23287205.334
 -19952298.91549 -15529951.50547  21843607.762    21843607.825    21843611.923
 -17920327.53949 -13946459.80447  21995250.891    21995250.195    21995255.102
  -8010737.97149  -5887107.18445  24408343.715    24408343.066    24408347.703
 02  1 10  2 53  0.0000000  0  8G24G13G10G27G 1G 4G 8G 2
 -21841566.92049 -16995977.07047  21474131.800    21474131.668    21474135.980
 -24095633.54849 -18743008.21647  20924875.523    20924875.490    20924877.917
 -12852718.63149  -9992506.79146  23215409.915    23215408.077    23215413.455
 -21187395.99149 -16491065.36748  21031487.362    21031486.995    21031490.877
 -10299191.28249  -7933261.97246  23303416.739    23303416.141    23303421.142
 -19874980.19749 -15469703.18047  21858321.013    21858321.579    21858325.439
 -18017857.74549 -14022457.34547  21976691.466    21976690.913    21976696.138
  -8085688.36049  -5945510.08845  24394081.096    24394080.050    24394085.302
 02  1 10  2 53 30.0000000  0  8G24G13G10G27G 1G 4G 8G 2
 -21841006.82049 -16995540.64447  21474238.438    21474238.424    21474242.542
 -24044502.45749 -18703165.81247  20934605.404    20934605.464    20934607.796
 -12945459.82749 -10064772.65946  23197761.743    23197760.794    23197764.051
 -21219926.96049 -16516414.16048  21025296.938    21025296.700    21025300.453
 -10213898.02449  -7866799.72346  23319647.333    23319647.174    23319651.161
 -19797260.58849 -15409142.47347  21873110.562    21873110.671    21873114.917
 -18115075.59249 -14098211.49047  21958191.500    21958190.691    21958195.428
  -8160516.30749  -6003817.57945  24379841.655    24379841.047    24379845.725
 02  1 10  2 54  0.0000000  0  8G24G13G10G27G 1G 4G 8G 2
 -21839856.45449 -16994644.26947  21474457.333    21474457.183    21474461.536
 -23993099.68649 -18663111.70547  20944386.996    20944387.182    20944389.358
 -13038075.55449 -10136940.74446  23180137.441    23180137.585    23180141.310
 -21251980.69649 -16541391.07948  21019197.282    21019196.943    21019200.659
 -10128522.71949  -7800273.53346  23335893.739    23335894.157    23335897.434
 -19719142.87749 -15348271.55747  21887975.888    21887975.850    21887979.937
 -18211978.71449 -14173720.39847  21939751.459    21939750.966    21939755.560
  -8235219.32849  -6062027.72445  24365626.191    24365625.369    24365629.989
 02  1 10  2 54 30.0000000  0  8G24G13G10G27G 1G 4G 8G 2
 -21838115.44049 -16993287.65147  21474788.667    21474788.633    21474792.858
 -23941426.75649 -18622847.08847  20954220.047    20954220.345    20954222.381
 -13130564.72849 -10209010.22746  23162537.366    23162535.900    23162540.834
 -21283556.95849 -16565995.94348  21013188.527    21013188.352    21013192.037
 -10043066.52549  -7733684.31646  23352155.683    23352154.810    23352159.443
 -19640629.70749 -15287092.49647  21902916.433    21902916.606    21902920.887
 -18308564.94749 -14248982.37547  21921371.766    21921371.201    21921375.659
  -8309794.91849  -6120138.56545  24351434.732    24351434.093    24351439.323
 02  1 10  2 55  0.0000000  0  8G24G13G10G27G 1G 4G 8G 2
 -21835783.59349 -16991470.64247  21475232.475    21475232.506    21475236.624
 -23889484.65549 -18582372.72747  20964104.347    20964104.622    20964106.862
 -13222925.43249 -10280979.59046  23144961.540    23144960.657    23144964.596
 -21314655.05649 -16590228.21148  21007270.775    21007270.389    21007274.131
  -9957530.23149  -7667032.68446  23368432.848    23368433.090    23368436.511
 -19561723.44649 -15225607.12047  21917931.843    21917932.371    21917936.143
 -18404831.93249 -14323995.58747  21903052.738    21903052.472    21903057.069
  -8384240.61049  -6178148.20045  24337268.245    24337267.880    24337273.480
 02  1 10  2 55 30.0000000  0  8G24G13G10G27G 1G 4G 8G 2
 -21832861.94249 -16989194.04747  21475788.453    21475788.231    21475792.660
 -23837275.00149 -18541689.88147  20974039.471    20974039.595    20974041.739
 -13315156.36149 -10352847.85046  23127410.720    23127409.847    23127413.598
 -21345275.25149 -16614088.08748  21001443.871    21001443.683    21001447.369
  -9871915.35349  -7600319.82046  23384724.828    23384724.472    23384728.139
 -19482427.42949 -15163818.04547  21933021.412    21933022.035    21933025.940
 -18500777.98849 -14398758.72747  21884794.839    21884794.332    21884798.637
  -8458554.44949  -6236055.08945  24323126.916    24323126.280    24323131.211
 02  1 10  2 56  0.0000000  0  8G24G13G10G27G 1G 4G 8G 2
 -21829349.01649 -16986456.72047  21476456.993    21476456.768    21476461.038
 -23784798.37349 -18500799.00647  20984025.424    20984025.501    20984027.853
 -13407254.87849 -10424612.91646  23109884.938    23109884.370    23109888.228
 -21375415.81249 -16637574.22448  20995708.369    20995708.114    20995711.723
  -9786221.87849  -7533545.71846  23401031.586    23401031.113    23401035.056
 -19402742.79649 -15101726.15247  21948184.976    21948185.058    21948188.776
 -18596399.38049 -14473268.87647  21866598.627    21866598.129    21866602.312
  -8532732.73149  -6293856.33645  24309011.320    24309011.092    24309015.733
 02  1 10  2 56 30.0000000  0  8G24G13G10G27G 1G 4G 8G 2
 -21825244.97949 -16983258.78447  21477237.965    21477237.758    21477242.103
 -23732055.96749 -18459701.03347  20994062.034    20994062.253    20994064.366
 -13499219.49349 -10496273.64946  23092384.613    23092383.895    23092387.412
 -21405076.42749 -16660686.37448  20990064.108    20990063.831    20990067.457
  -9700450.97549  -7466711.26346  23417353.190    23417353.014    23417356.425
 -19322672.47849 -15039333.72547  21963421.834    21963421.740    21963426.143
 -18691694.32349 -14547524.65247  21848464.477    21848463.264    21848468.444
  -8606773.28149  -6351550.27445  24294921.754    24294921.266    24294926.207
 02  1 10  2 57  0.0000000  0  8G24G13G10G27G 1G 4G 8G 2
 -21820550.62149 -16979600.86047  21478131.281    21478131.199    21478135.185
 -23679048.98249 -18418396.89047  21004148.891    21004149.100    21004151.504
 -13591048.49049 -10567828.69946  23074910.164    23074909.023    23074913.562
 -21434256.46949 -16683424.05648  20984511.354    20984511.015    20984514.717
  -9614603.34749  -7399817.02446  23433689.397    23433689.394    23433693.953
 -19242218.71049 -14976642.50647  21978731.655    21978731.511    21978735.956
 -18786660.16649 -14621523.99047  21830393.081    21830392.644    21830397.156
  -8680673.21249  -6409134.61245  24280858.984    24280858.122    24280863.575
 02  1 10  2 57 30.0000000  0  8G24G13G10G27G 1G 4G 8G 2
 -21815265.45549 -16975482.55947  21479137.058    21479136.673    21479141.198
 -23625778.69049 -18376887.57847  21014285.929    21014286.072    21014288.110
 -13682740.24349 -10639276.81946  23057461.784    23057462.121    23057464.693
 -21462955.76949 -16705787.13348  20979050.081    20979049.846    20979053.286
  -9528680.07849  -7332863.85246  23450040.066    23450039.835    23450043.569
 -19161384.18049 -14913654.59147  21994113.915    21994114.162    21994117.975
 -18881294.64449 -14695265.11847  21812384.738    21812383.931    21812388.827
  -8754430.23549  -6466607.61245  24266823.586    24266822.828    24266828.216
 02  1 10  2 58  0.0000000  0  8G24G13G10G27G 1G 4G 8G 2
 -21809390.47249 -16970904.66347  21480255.031    21480254.869    21480259.196
 -23572246.99049 -18335174.57147  21024472.696    21024472.900    21024475.196
 -13774293.84749 -10710617.26146  23040039.804    23040038.393    23040042.840
 -21491174.73449 -16727775.92248  20973680.151    20973679.934    20973683.458
  -9442683.00949  -7265853.16746  23466404.839    23466405.116    23466409.240
 -19080172.27949 -14850372.61147  22009568.143    22009568.673    22009572.376
 -18975596.50249 -14768747.06347  21794439.699    21794439.254    21794443.789
  -8828042.48349  -6523967.79245  24252815.601    24252814.816    24252820.612
 02  1 10  2 58 30.0000000  0  8G24G13G10G27G 1G 4G 8G 2
 -21802924.87449 -16965866.55247  21481485.448    21481485.157    21481489.640
 -23518453.89049 -18293257.87347  21034709.239    21034709.254    21034711.744
 -13865706.25049 -10781847.70646  23022644.479    23022643.266    23022647.246
 -21518911.54549 -16749389.00648  20968402.044    20968401.758    20968405.264
  -9356611.68349  -7198784.63946  23482783.767    23482784.397    23482787.937
 -18998584.31349 -14786797.59947  22025093.804    22025094.115    22025097.886
 -19069561.73849 -14841966.70347  21776558.667    21776558.252    21776562.691
  -8901506.28949  -6581212.29045  24238835.489    24238835.164    24238841.069
 02  1 10  2 59  0.0000000  0  8G24G13G10G27G 1G 4G 8G 2
 -21795868.90149 -16960368.40447  21482828.146    21482827.658    21482832.183
 -23464401.05249 -18251138.78747  21044995.117    21044995.223    21044997.502
 -13956976.59449 -10852967.43946  23005276.188    23005276.409    23005279.011
 -21546166.42249 -16770626.55748  20963215.603    20963215.168    20963218.847
  -9270467.55449  -7131659.35346  23499176.574    23499176.059    23499180.726
 -18916623.37449 -14722931.96347  22040690.513    22040691.117    22040694.316
 -19163188.85649 -14914922.87347  21758742.068    21758741.467    21758745.573
  -8974819.68349  -6638339.61945  24224884.644    24224884.681    24224889.912
 02  1 10  2 59 30.0000000  0  8G24G13G10G27G 1G 4G 8G 2
 -21788223.07049 -16954410.62747  21484283.021    21484282.850    21484287.120
 -23410089.55549 -18208818.14847  21055330.219    21055330.328    21055332.799
 -14048102.50549 -10923974.64246  22987935.828    22987934.584    22987938.223
 -21572938.78649 -16791488.12548  20958120.999    20958120.585    20958124.299
  -9184251.41349  -7064477.97846  23515583.046    23515582.951    23515586.202
 -18834292.03649 -14658777.70247  22056357.691    22056357.821    22056362.015
 -19256475.37249 -14987613.64547  21740990.307    21740989.796    21740994.352
  -9047979.82249  -6695347.51045  24210962.915    24210962.589    24210967.789
 02  1 10  3  0  0.0000000  0  8G24G13G10G27G 1G 4G 8G 2
 -21779988.54049 -16947994.12047  21485850.023    21485849.806    21485854.136
 -23355521.69549 -18166297.74547  21065714.143    21065714.359    21065716.646
 -14139083.40949 -10994868.83646  22970622.754    22970621.450    22970625.949
 -21599229.23849 -16811974.17348  20953118.026    20953117.738    20953121.435
  -9097964.96749  -6997241.79946  23532002.854    23532002.823    23532006.236
 -18751593.65549 -14594337.43047  22072094.653    22072095.037    22072098.936
 -19349419.90949 -15060037.93147  21723303.583    21723303.060    21723307.561
  -9120985.32749  -6752234.91245  24197070.449    24197069.667    24197075.301
 02  1 10  3  0 30.0000000  0  8G24G13G10G27G 1G 4G 8G 2
 -21771164.36949 -16941118.16347  21487529.200    21487529.033    21487533.322
 -23300697.48549 -18123577.59247  21076146.835    21076146.837    21076149.172
 -14229916.83749 -11065648.11346  22953337.660    22953336.166    22953340.222
 -21625036.54949 -16832083.75448  20948207.077    20948206.718    20948210.497
  -9011608.33249  -6929950.95546  23548435.897    23548434.988    23548439.280
 -18668529.99749 -14529612.53347  22087901.191    22087901.414    22087905.253
 -19442019.28949 -15132193.26847  21705682.450    21705682.039    21705686.012
  -9193832.76949  -6808999.13845  24183207.839    24183207.084    24183213.004
 02  1 10  3  1  0.0000000  0  8G24G13G10G27G 1G 4G 8G 2
 -21761749.70049 -16933782.07347  21489320.804    21489320.623    21489325.107
 -23245617.52249 -18080658.14947  21086628.181    21086628.271    21086630.528
 -14320599.86149 -11136310.20646  22936081.156    22936080.292    22936084.874
 -21650359.40149 -16851815.83248  20943388.287    20943387.884    20943391.635
  -8925181.47449  -6862605.37146  23564882.416    23564882.142    23564885.906
 -18585102.77749 -14464604.33647  22103776.956    22103777.074    22103780.627
 -19534270.34449 -15204077.18247  21688127.667    21688127.332    21688131.411
  -9266518.62149  -6865637.45945  24169376.304    24169376.399    24169380.334
 02  1 10  3  1 30.0000000  0  8G24G13G10G27G 1G 4G 8G 2
 -21751747.07649 -16925987.83947  21491224.209    21491224.215    21491228.177
 -23190284.68549 -18037541.66247  21097157.614    21097158.151    21097160.366
 -14411132.48149 -11206855.09346  22918853.302    22918852.449    22918856.946
 -21675199.34449 -16871171.62348  20938661.393    20938661.326    20938664.736
  -8838687.20749  -6795207.26945  23581341.703    23581341.377    23581345.137
 -18501316.32549 -14399316.22447  22119720.963    22119721.026    22119725.636
 -19626172.48349 -15275689.21447  21670639.214    21670638.819    21670643.384
  -9339042.21049  -6922149.33245  24155575.664    24155574.943    24155579.709
 02  1 10  3  2  0.0000000  0  8G24G13G10G27G 1G 4G 8G 2
 -21741155.36949 -16917734.57547  21493239.729    21493239.300    21493243.985
 -23134698.76249 -17994227.96147  21107735.318    21107735.639    21107737.806
 -14501511.58949 -11277280.35646  22901654.648    22901653.835    22901657.960
 -21699554.79149 -16890149.87848  20934026.739    20934026.715    20934029.909
  -8752125.09849  -6727756.31345  23597813.819    23597813.534    23597817.434
 -18417171.95749 -14333749.21747  22135733.106    22135733.690    22135737.471
 -19717722.26449 -15347026.68247  21653217.915    21653217.250    21653221.656
  -9411399.65749  -6978531.73645  24141806.530    24141805.446    24141811.366
 02  1 10  3  2 30.0000000  0  8G24G13G10G27G 1G 4G 8G 2
 -21729975.21149 -16909022.77847  21495367.231    21495367.107    21495371.487
 -23078861.68449 -17950718.55547  21118360.771    21118360.973    21118363.185
 -14591736.18249 -11347585.21846  22884485.557    22884484.571    22884488.805
 -21723425.97849 -16908750.79048  20929484.214    20929483.870    20929487.387
  -8665496.50349  -6660253.54345  23614298.668    23614298.401    23614301.750
 -18332673.09749 -14267905.97347  22151812.702    22151812.939    22151816.629
 -19808918.00449 -15418088.26447  21635863.913    21635863.523    21635867.825
  -9483588.93049  -7034783.10945  24128069.236    24128068.866    24128072.890
 02  1 10  3  3  0.0000000  0  8G24G13G10G27G 1G 4G 8G 2
 -21718206.32649 -16899852.23747  21497606.763    21497606.707    21497610.981
 -23022773.56449 -17907013.53847  21129034.016    21129034.394    21129036.647
 -14681803.56049 -11417767.58046  22867346.333    22867345.916    22867349.130
 -21746811.76049 -16926973.46648  20925033.983    20925033.661    20925037.219
  -8578801.23949  -6592698.82745  23630796.129    23630796.130    23630800.080
 -18247821.25549 -14201787.68647  22167959.533    22167959.941    22167963.982
 -19899756.37649 -15488871.38747  21618577.859    21618577.340    21618581.628
  -9555606.69949  -7090900.84045  24114364.606    24114364.483    24114368.657
 02  1 10  3  3 30.0000000  0  8G24G13G10G27G 1G 4G 8G 2
 -21705849.62949 -16890223.65647  21499958.225    21499958.129    21499962.417
 -22966435.91449 -17863114.07547  21139754.715    21139754.912    21139757.230
 -14771712.52249 -11487826.50246  22850237.200    22850236.011    22850240.843
 -21769712.36749 -16944818.08448  20920676.112    20920675.698    20920679.230
  -8492040.79549  -6525093.31845  23647306.106    23647306.360    23647309.804
 -18162619.79249 -14135396.96647  22184172.891    22184172.807    22184177.033
 -19990235.78449 -15559374.79447  21601360.224    21601359.690    21601363.700
  -9627450.98949  -7146883.38845  24100692.939    24100692.508    24100697.532
 02  1 10  3  4  0.0000000  0  8G24G13G10G27G 1G 4G 8G 2
 -21692905.88949 -16880137.64647  21502421.369    21502421.613    21502425.507
 -22909850.28049 -17819021.38147  21150522.600    21150522.918    21150525.014
 -14861461.55549 -11557760.79446  22833158.383    22833157.734    22833161.209
 -21792127.81849 -16962284.66048  20916410.593    20916410.161    20916413.697
  -8405216.34149  -6457437.92645  23663828.262    23663828.343    23663831.961
 -18077071.26749 -14068735.80347  22200452.252    22200452.527    22200456.936
 -20080354.00549 -15629596.75847  21584211.232    21584210.392    21584214.879
  -9699119.20349  -7202728.73945  24087054.950    24087054.199    24087059.596
 02  1 10  3  4 30.0000000  0  8G24G13G10G27G 1G 4G 8G 2
 -21679376.36149 -16869595.17047  21504996.009    21504996.291    21505000.101
 -22853018.82849 -17774737.13947  21161337.351    21161337.721    21161339.737
 -14951049.62049 -11627569.65746  22816110.291    22816108.837    22816113.442
 -21814058.69249 -16979373.63948  20912237.206    20912236.900    20912240.417
  -8318329.66049  -6389734.04945  23680362.340    23680361.867    23680366.516
 -17991179.52349 -14001807.20247  22216796.948    22216796.792    22216801.297
 -20170109.96249 -15699536.44047  21567131.194    21567130.796    21567134.797
  -9770610.16849  -7258435.96845  24073450.719    24073450.577    24073455.387
 02  1 10  3  5  0.0000000  0  8G24G13G10G27G 1G 4G 8G 2
 -21665259.08249 -16858594.70747  21507682.483    21507682.281    21507686.459
 -22795940.42649 -17730260.47047  21172199.032    21172199.142    21172201.394
 -15040472.58049 -11697249.88446  22799093.681    22799092.557    22799096.914
 -21835502.54349 -16996083.12648  20908156.590    20908156.245    20908159.718
  -8231379.25549  -6321980.50545  23696908.559    23696908.342    23696912.225
 -17904944.90749 -13934611.42747  22233206.855    22233207.131    22233210.950
 -20259499.02649 -15769190.23447  21550121.072    21550120.392    21550124.988
  -9841919.04049  -7314001.30145  24059881.137    24059880.531    24059886.342
 02  1 10  3  5 30.0000000  0  8G24G13G10G27G 1G 4G 8G 2
 -21650554.68149 -16847136.74947  21510480.613    21510480.304    21510484.632
 -22738616.14149 -17685592.20547  21183107.490    21183107.690    21183109.747
 -15129729.05249 -11766800.37646  22782108.699    22782108.534    22782112.238
 -21856459.41249 -17012413.14248  20904168.606    20904168.166    20904171.816
  -8144366.02549  -6254178.02245  23713466.666    23713466.179    23713471.673
 -17818370.15849 -13867150.61147  22249681.506    22249681.776    22249686.147
 -20348519.27449 -15838556.63547  21533181.061    21533180.919    21533184.876
  -9913043.30149  -7369422.78945  24046346.609    24046345.891    24046350.900
 02  1 10  3  6  0.0000000  0  8G24G13G10G27G 1G 4G 8G 2
 -21635266.66649 -16835224.02647  21513389.782    21513389.700    21513393.705
 -22681050.12249 -17640735.57247  21194061.937    21194061.836    21194064.275
 -15218819.88749 -11836221.79046  22765155.240    22765153.742    22765158.974
 -21876931.93349 -17028365.74248  20900272.777    20900272.243    20900275.772
  -8057293.64949  -6186329.43545  23730036.030    23730035.378    23730039.585
 -17731460.75049 -13799429.01747  22266219.839    22266220.007    22266223.812
 -20437171.19949 -15907636.02647  21516311.194    21516310.638    21516314.952
  -9983983.27149  -7424700.68345  24032847.265    24032846.956    24032851.501
 02  1 10  3  6 30.0000000  0  8G24G13G10G27G 1G 4G 8G 2
 -21619392.94149 -16822854.90447  21516410.463    21516410.169    21516414.605
 -22623241.00849 -17595689.51547  21205062.548    21205062.361    21205064.879
 -15307740.54149 -11905510.60146  22748234.260    22748232.766    22748236.841
 -21896917.36649 -17043938.79648  20896469.666    20896469.105    20896472.907
  -7970160.14349  -6118433.25245  23746617.201    23746617.199    23746620.626
 -17644216.87549 -13731446.80547  22282821.777    22282821.943    22282826.285
 -20525449.87549 -15976424.58047  21499512.268    21499511.498    21499515.385
 -10054733.84949  -7479830.99145  24019384.035    24019383.157    24019389.055
 02  1 10  3  7  0.0000000  0  8G24G13G10G27G 1G 4G 8G 2
 -21602934.79449 -16810030.40047  21519542.356    21519542.191    21519546.825
 -22565190.61449 -17550455.45647  21216109.178    21216109.263    21216111.928
 -15396489.81249 -11974665.86746  22731345.797    22731345.157    22731349.116
 -21916416.18549 -17059132.67648  20892759.194    20892758.934    20892762.594
  -7882967.11249  -6050490.68045  23763209.533    23763209.392    23763213.332
 -17556641.93949 -13663206.62546  22299486.726    22299487.016    22299490.769
 -20613353.95049 -16044921.23947  21482784.665    21482784.128    21482788.502
 -10125293.34649  -7534812.38945  24005956.767    24005955.783    24005961.855
 02  1 10  3  7 30.0000000  0  8G24G13G10G27G 1G 4G 8G 2
 -21585891.86049 -16796750.20947  21522785.546    21522785.616    21522789.327
 -22506899.36649 -17505033.71047  21227201.637    21227201.764    21227204.092
 -15485065.18249 -12043685.63046  22714490.581    22714489.536    22714493.251
 -21935427.64749 -17073946.79248  20889141.426    20889141.218    20889144.673
  -7795714.81049  -5982501.91545  23779812.902    23779812.498    23779816.465
 -17468737.77749 -13594709.89946  22316214.380    22316214.836    22316218.478
 -20700880.55449 -16113123.75647  21466128.967    21466128.199    21466132.985
 -10195658.37849  -7589642.26145  23992566.757    23992566.602    23992571.793
 02  1 10  3  8  0.0000000  0  8G24G13G10G27G 1G 4G 8G 2
 -21568266.65949 -16783016.30047  21526139.554    21526139.484    21526143.636
 -22448370.05249 -17459426.45947  21238339.398    21238339.474    21238341.898
 -15573466.89149 -12112570.06146  22697668.191    22697667.282    22697671.923
 -21953953.56649 -17088382.56548  20885616.099    20885615.779    20885619.305
  -7708405.85149  -5914468.97145  23796427.297    23796427.506    23796430.576
 -17380509.12449 -13525960.32746  22333003.778    22333004.053    22333007.931
 -20788029.47049 -16181031.97147  21449545.050    21449544.100    21449548.678
 -10265828.46749  -7644320.23645  23979214.028    23979213.636    23979218.554
 02  1 10  3  8 30.0000000  0  8G24G13G10G27G 1G 4G 8G 2
 -21550059.60049 -16768829.00847  21529604.240    21529604.215    21529608.285
 -22389603.35149 -17413634.23547  21249522.339    21249522.692    21249524.935
 -15661692.38249 -12181317.19546  22680879.433    22680878.754    22680883.154
 -21971993.09449 -17102439.33248  20882183.226    20882182.916    20882186.553
  -7621040.47449  -5846392.07645  23813052.434    23813052.767    23813056.146
 -17291958.22149 -13456959.65046  22349854.430    22349854.458    22349858.211
 -20874797.72749 -16248643.57247  21433033.544    21433032.790    21433036.977
 -10335800.55649  -7698843.92345  23965898.886    23965897.694    23965902.772
 02  1 10  3  9  0.0000000  0  8G24G13G10G27G 1G 4G 8G 2
 -21531268.13949 -16754186.32847  21533180.249    21533179.930    21533184.326
 -22330597.58249 -17367655.72347  21260750.722    21260751.088    21260753.216
 -15749736.84949 -12249923.27046  22664125.174    22664125.363    22664128.442
 -21989543.47349 -17116114.94348  20878843.515    20878843.168    20878846.707
  -7533616.69149  -5778269.68145  23829688.469    23829687.591    23829693.312
 -17203084.75049 -13387707.62246  22366766.485    22366766.410    22366770.248
 -20961180.61749 -16315954.89247  21416595.463    21416594.720    21416598.903
 -10405569.36449  -7753209.21145  23952622.199    23952621.175    23952626.418
 02  1 10  3  9 30.0000000  0  8G24G13G10G27G 1G 4G 8G 2
 -21511896.00549 -16739091.18047  21536866.636    21536866.388    21536870.730
 -22271357.07649 -17321494.29447  21272023.861    21272023.944    21272026.152
 -15837601.56549 -12318389.27646  22647405.159    22647404.678    22647408.057
 -22006607.70549 -17129411.73748  20875596.286    20875595.786    20875599.422
  -7446138.36849  -5710104.78445  23846335.012    23846334.526    23846339.455
 -17113894.71549 -13318208.92146  22383738.802    22383739.490    22383743.300
 -21047179.01249 -16382966.59647  21400230.488    21400229.709    21400234.014
 -10475135.45149  -7807416.53445  23939384.090    23939383.210    23939388.624
 02  1 10  3 10  0.0000000  0  8G24G13G10G27G 1G 4G 8G 2
 -21491943.22449 -16723543.57847  21540663.561    21540663.679    21540667.872
 -22211882.11549 -17275150.17447  21283341.493    21283341.889    21283343.961
 -15925284.06949 -12386713.30846  22630719.852    22630718.739    22630722.635
 -22023184.90049 -17142329.02248  20872441.722    20872441.459    20872444.892
  -7358605.39349  -5641897.31645  23862992.014    23862991.835    23862996.801
 -17024389.95849 -13248464.98446  22400771.087    22400771.299    22400775.116
 -21132789.96649 -16449676.40247  21383939.177    21383938.627    21383942.621
 -10544495.66449  -7861463.42945  23926185.320    23926184.787    23926189.671
 02  1 10  3 10 30.0000000  0  8G24G13G10G27G 1G 4G 8G 2
 -21471411.67849 -16707544.99247  21544570.580    21544570.454    21544575.049
 -22152174.73949 -17228624.95147  21294703.463    21294703.753    21294706.033
 -16012783.49249 -12454894.67046  22614069.202    22614068.206    22614072.393
 -22039276.12149 -17154867.62648  20869379.636    20869379.349    20869383.019
  -7271019.64249  -5573648.70145  23879659.078    23879659.246    23879663.561
 -16934574.01849 -13178478.55846  22417862.471    22417862.647    22417866.470
 -21218012.43149 -16516083.49347  21367721.851    21367721.174    21367725.359
 -10613648.44149  -7915348.68445  23913026.057    23913025.157    23913030.404
 02  1 10  3 11  0.0000000  0  8G24G13G10G27G 1G 4G 8G 2
 -21450299.83549 -16691094.22447  21548588.054    21548588.063    21548592.280
 -22092234.12749 -17181917.97947  21306109.852    21306109.987    21306111.976
 -16100095.57249 -12522930.06746  22597454.296    22597453.259    22597457.494
 -22054878.97849 -17167025.68848  20866410.559    20866410.295    20866413.720
  -7183379.62949  -5505357.80145  23896336.652    23896336.820    23896341.238
 -16844447.84249 -13108250.39946  22435012.942    22435012.574    22435017.177
 -21302841.96449 -16582184.39747  21351579.341    21351578.700    21351582.474
 -10682588.98549  -7969068.57145  23899907.070    23899905.819    23899911.067
 02  1 10  3 11 30.0000000  0  8G24G13G10G27G 1G 4G 8G 2
 -21428608.77349 -16674192.11847  21552715.765    21552715.605    21552719.915
 -22032061.62649 -17135030.32147  21317560.311    21317560.320    21317562.829
 -16187218.83849 -12590818.31446  22580875.337    22580875.006    22580878.649
 -22069994.15949 -17178803.74148  20863534.219    20863534.056    20863537.407
  -7095686.80349  -5437025.76345  23913024.051    23913024.048    23913027.949
 -16754014.42149 -13037782.82146  22452221.843    22452222.160    22452226.940
 -21387276.99049 -16647977.89247  21335511.868    21335511.443    21335515.661
 -10751315.58549  -8022621.75345  23886828.854    23886828.033    23886833.062
 02  1 10  3 12  0.0000000  0  8G24G13G10G27G 1G 4G 8G 2
 -21406339.92849 -16656839.79647  21556953.384    21556952.992    21556957.414
 -21971658.40849 -17087962.88547  21329054.685    21329054.663    21329057.293
 -16274151.72049 -12658558.21646  22564332.483    22564331.678    22564335.858
 -22084621.77549 -17190201.87448  20860750.675    20860750.393    20860754.184
  -7007941.99349  -5368653.21545  23929721.374    23929720.329    23929725.715
 -16663276.80749 -12967078.21846  22469488.697    22469488.827    22469492.927
 -21471315.63749 -16713462.51947  21319519.844    21319519.194    21319523.397
 -10819825.79649  -8076006.31745  23873791.729    23873790.269    23873796.240
 02  1 10  3 12 30.0000000  0  8G24G13G10G27G 1G 4G 8G 2
 -21383494.36649 -16639038.07547  21561300.729    21561300.402    21561304.932
 -21911026.25849 -17040717.06247  21340592.607    21340592.535    21340594.898
 -16360892.93149 -12726148.76646  22547826.135    22547825.525    22547828.918
 -22098762.57149 -17201220.66448  20858059.727    20858059.396    20858063.081
  -6920146.49249  -5300241.18045  23946428.562    23946428.393    23946432.769
 -16572238.28849 -12896139.13646  22486812.747    22486813.173    22486816.766
 -21554956.33849 -16778637.05947  21303603.535    21303602.733    21303606.945
 -10888117.73049  -8129220.78946  23860796.117    23860794.895    23860801.262
 02  1 10  3 13  0.0000000  0  8G24G13G10G27G 1G 4G 8G 2
 -21360073.27149 -16620787.89547  21565757.618    21565757.267    21565761.727
 -21850166.60649 -16993293.96347  21352173.813    21352173.938    21352176.161
 -16447440.81149 -12793588.67746  22531356.638    22531356.217    22531359.960
 -22112416.73449 -17211860.26848  20855461.405    20855461.155    20855464.638
  -6832301.40749  -5231790.49545  23963144.955    23963144.220    23963148.787
 -16480901.92849 -12824967.97946  22504193.461    22504193.461    22504198.137
 -21638197.14949 -16843499.99847  21287763.319    21287762.689    21287766.650
 -10956189.13149  -8182263.40646  23847842.589    23847842.212    23847846.565
 02  1 10  3 13 30.0000000  0  8G24G13G10G27G 1G 4G 8G 2
 -21336076.43849 -16602089.08647  21570324.108    21570323.945    21570328.345
 -21789079.66149 -16945693.75247  21363798.237    21363798.180    21363800.551
 -16533792.46649 -12860875.67346  22514924.411    22514923.513    22514927.638
 -22125583.52349 -17222120.09548  20852955.926    20852955.609    20852959.206
  -6744406.62849  -5163301.08145  23979870.921    23979870.751    23979875.463
 -16389269.69049 -12753566.27146  22521630.555    22521631.009    22521634.677
 -21721035.33849 -16908049.20547  21271999.709    21271999.181    21272002.990
 -11024036.88949  -8235131.79146  23834931.739    23834931.800    23834935.547
 02  1 10  3 14  0.0000000  0  8G24G13G10G27G 1G 4G 8G 2
 -21311505.61349 -16582943.01447  21574999.731    21574999.718    21575003.901
 -21727767.04349 -16897917.69247  21375465.594    21375465.893    21375467.994
 -16619946.56449 -12928008.73946  22498529.938    22498529.602    22498533.132
 -22138263.60349 -17232000.66948  20850543.011    20850542.700    20850546.130
  -6656463.24349  -5094773.80145  23996605.969    23996605.316    23996609.658
 -16297344.87049 -12681936.56446  22539123.300    22539122.880    22539127.123
 -21803469.36249 -16972283.48147  21256313.056    21256312.451    21256316.636
 -11091658.91849  -8287824.27646  23822063.658    23822062.459    23822068.874
 02  1 10  3 14 30.0000000  0  8G24G13G10G27G 1G 4G 8G 2
 -21286360.44349 -16563349.39547  21579784.756    21579784.676    21579788.787
 -21666228.41249 -16849965.51647  21387176.044    21387176.176    21387178.534
 -16705899.74649 -12994985.24346  22482173.707    22482172.716    22482176.654
 -22150455.65749 -17241500.96148  20848222.937    20848222.726    20848226.164
  -6568470.57749  -5026208.11845  24013350.465    24013349.384    24013354.483
 -16205128.78249 -12610079.90646  22556671.469    22556672.011    22556675.819
 -21885495.90349 -17036200.23347  21240703.918    21240703.097    21240707.838
 -11159051.55749  -8340337.97346  23809239.077    23809238.237    23809243.422
 02  1 10  3 15  0.0000000  0  8G24G13G10G27G 1G 4G 8G 2
 -21260644.00149 -16543310.62847  21584678.445    21584678.368    21584682.821
 -21604467.30949 -16801839.98947  21398928.768    21398928.730    21398931.007
 -16791652.57149 -13061805.62746  22465855.480    22465854.143    22465858.208
 -22162162.16449 -17250622.91048  20845995.296    20845994.938    20845998.396
  -6480431.86949  -4957606.55145  24030103.791    24030103.855    24030107.908
 -16112626.69349 -12538000.38646  22574274.087    22574274.205    22574278.535
 -21967115.04349 -17099799.53147  21225172.206    21225171.360    21225175.710
 -11226214.70349  -8392672.87046  23796458.448    23796458.085    23796462.892
 02  1 10  3 15 30.0000000  0  8G24G13G10G27G 1G 4G 8G 2
 -21234356.66649 -16522827.01347  21589680.763    21589680.615    21589685.301
 -21542483.89649 -16753541.23647  21410723.844    21410723.944    21410726.356
 -16877202.09349 -13128467.59146  22449575.938    22449574.963    22449579.254
 -22173382.31649 -17259365.87848  20843860.138    20843859.936    20843863.475
  -6392347.03549  -4888969.03745  24046865.915    24046865.312    24046869.543
 -16019840.48249 -12465699.47146  22591930.722    22591931.142    22591935.236
 -22048324.12049 -17163079.30347  21209718.569    21209718.078    21209722.246
 -11293145.08549  -8444826.41546  23783722.184    23783722.002    23783725.586
 02  1 10  3 16  0.0000000  0  8G24G13G10G27G 1G 4G 8G 2
 -21207497.90049 -16501898.12947  21594791.867    21594791.627    21594796.120
 -21480278.51349 -16705069.51947  21422561.138    21422561.489    21422563.880
 -16962545.65749 -13194969.06646  22433335.492    22433334.606    22433338.475
 -22184115.30849 -17267729.24248  20841817.724    20841817.510    20841821.004
  -6304215.64249  -4820295.27345  24063636.686    24063636.241    24063639.951
 -15926771.97949 -12393178.59246  22609641.131    22609641.231    22609645.727
 -22129119.99749 -17226037.10147  21194343.537    21194342.952    21194346.961
 -11359839.20349  -8496795.83446  23771030.604    23771029.359    23771034.161
 02  1 10  3 16 30.0000000  0  8G24G13G10G27G 1G 4G 8G 2
 -21180067.67249 -16480523.94947  21600011.692    21600011.523    21600015.795
 -21417850.38949 -16656424.23847  21434440.827    21434441.065    21434443.480
 -17047679.72549 -13261307.29446  22417134.992    22417133.701    22417138.319
 -22194360.00349 -17275712.11848  20839868.231    20839867.930    20839871.413
  -6216037.12549  -4751584.77945  24080416.341    24080416.525    24080419.497
 -15833422.48549 -12320438.75946  22627404.916    22627405.283    22627409.578
 -22209499.24549 -17288670.24747  21179047.797    21179047.271    21179051.558
 -11426293.24149  -8548578.18646  23758384.731    23758383.483    23758389.060
 02  1 10  3 17  0.0000000  0  8G24G13G10G27G 1G 4G 8G 2
 -21152068.84249 -16458706.69547  21605339.684    21605339.615    21605344.153
 -21355202.58549 -16607607.77647  21446362.378    21446362.612    21446364.739
 -17132604.23949 -13327482.23546  22400974.360    22400974.048    22400977.919
 -22204118.40749 -17283316.06248  20838011.254    20838010.835    20838014.415
  -6127814.05449  -4682839.55645  24097204.652    24097204.722    24097208.037
 -15739796.99949 -12247483.86146  22645221.207    22645221.739    22645225.933
 -22289462.02249 -17350978.88047  21163831.429    21163831.095    21163834.958
 -11492506.78349  -8600173.14146  23745784.704    23745784.196    23745789.139
 02  1 10  3 17 30.0000000  0  8G24G13G10G27G 1G 4G 8G 2
 -21123503.49249 -16436448.00147  21610775.479    21610775.272    21610780.037
 -21292337.27649 -16558621.82647  21458325.216    21458325.111    21458327.722
 -17217318.19149 -13393493.10546  22384853.812    22384853.069    22384856.736
 -22213391.52549 -17290541.85848  20836246.615    20836246.287    20836249.779
  -6039548.08849  -4614060.90745  24114001.284    24114001.044    24114004.213
 -15645898.86049 -12174316.50946  22663089.503    22663090.179    22663092.793
 -22369007.05149 -17412961.99047  21148694.579    21148693.944    21148697.799
 -11558478.12949  -8651579.36846  23733230.765    23733229.697    23733235.313
 02  1 10  3 18  0.0000000  0  8G24G13G10G27G 1G 4G 8G 2
 -21094371.11349 -16413747.46747  21616319.199    21616319.034    21616323.573
 -21229254.30049 -16509466.26347  21470329.481    21470329.550    21470331.703
 -17301818.47049 -13459337.47746  22368773.936    22368772.921    22368777.185
 -22222178.41649 -17297388.78348  20834574.540    20834574.045    20834577.682
  -5951238.58449  -4545248.34945  24130805.976    24130805.341    24130810.221
 -15551729.89949 -12100938.12146  22681009.309    22681009.824    22681013.613
 -22448131.01049 -17474616.99447  21133637.748    21133637.197    21133641.141
 -11624203.66449  -8702794.03646  23720723.664    23720722.955    23720727.633
 02  1 10  3 18 30.0000000  0  8G24G13G10G27G 1G 4G 8G 2
 -21064673.36649 -16390606.39147  21621970.497    21621970.571    21621975.056
 -21165954.57149 -16460141.81447  21482375.144    21482375.361    21482377.527
 -17386103.27149 -13525013.94746  22352735.091    22352734.624    22352737.864
 -22230479.71349 -17303857.32348  20832994.766    20832994.558    20832997.919
  -5862886.61249  -4476402.67445  24147618.811    24147617.762    24147623.396
 -15457292.97449 -12027350.94446  22698980.144    22698980.223    22698984.914
 -22526832.25149 -17535942.60547  21118661.341    21118660.645    21118665.171
 -11689681.42149  -8753815.64446  23708263.540    23708262.771    23708267.087
 02  1 10  3 19  0.0000000  0  8G24G13G10G27G 1G 4G 8G 2
 -21034411.64049 -16367025.84847  21627729.184    21627729.135    21627733.780
 -21102439.70449 -16410649.71647  21494461.577    21494461.734    21494463.699
 -17470170.87149 -13590521.16246  22336737.549    22336737.398    22336740.845
 -22238295.94749 -17309947.89048  20831507.409    20831507.108    20831510.494
  -5774493.02649  -4407524.58045  24164439.675    24164439.177    24164442.864
 -15362591.48449 -11953557.60146  22717001.300    22717001.887    22717005.858
 -22605109.39749 -17596937.75247  21103765.621    21103765.097    21103769.368
 -11754909.32149  -8804642.57246  23695851.229    23695850.914    23695855.352
 02  1 10  3 19 30.0000000  0  8G24G13G10G27G 1G 4G 8G 2
 -21003586.40649 -16343006.20847  21633594.989    21633594.874    21633599.464
 -21038710.39149 -16360990.51747  21506588.860    21506588.968    21506591.059
 -17554018.91949 -13655857.30346  22320781.828    22320780.825    22320784.927
 -22245626.80849 -17315660.24348  20830112.356    20830112.143    20830115.464
  -5686058.06349  -4338614.27245  24181268.346    24181268.746    24181271.437
 -15267627.53449 -11879559.74346  22735072.357    22735072.657    22735076.445
 -22682959.63349 -17657600.24847  21088951.314    21088950.613    21088954.737
 -11819884.38649  -8855272.45846  23683487.007    23683485.614    23683491.704
 02  1 10  3 20  0.0000000  0  8G24G13G10G27G 1G 4G 8G 2
 -20972199.70749 -16318549.06147  21639567.689    21639567.669    21639571.976
 -20974768.07649 -16311165.34847  21518756.697    21518756.885    21518759.003
 -17637645.80049 -13721021.09646  22304868.071    22304867.422    22304871.120
 -22252473.21549 -17320995.10248  20828809.560    20828809.395    20828812.705
  -5597582.97849  -4269672.68345  24198104.526    24198102.842    24198108.054
 -15172404.62149 -11805360.10146  22753192.700    22753192.952    22753197.142
 -22760381.96449 -17717929.30547  21074218.230    21074217.553    21074221.739
 -11884604.93149  -8905704.01246  23671170.933    23671169.750    23671175.039
 02  1 10  3 20 30.0000000  0  8G24G13G10G27G 1G 4G 8G 2
 -20940251.35949 -16293654.26247  21645647.299    21645646.950    21645651.803
 -20910612.37949 -16261173.90547  21530965.104    21530965.363    21530967.313
 -17721048.07749 -13786009.88846  22288997.255    22288996.079    22288999.780
 -22258834.00449 -17325951.55448  20827599.117    20827598.773    20827602.415
  -5509066.92449  -4200699.17045  24214948.544    24214948.930    24214952.513
 -15076924.10449 -11730959.72146  22771362.101    22771362.324    22771366.252
 -22837372.94949 -17777922.24847  21059567.252    21059566.815    21059571.200
 -11949067.02649  -8955934.19446  23658904.202    23658903.982    23658907.236
 02  1 10  3 21  0.0000000  0  8G24G13G10G27G 1G 4G 8G 2
 -20907743.60349 -16268323.57647  21651833.259    21651833.198    21651837.803
 -20846245.57649 -16211017.96547  21543213.746    21543214.103    21543216.008
 -17804224.96949 -13850823.04646  22273169.118    22273168.117    22273172.142
 -22264710.54749 -17330530.67248  20826480.819    20826480.518    20826484.110
  -5420511.83249  -4131695.26045  24231800.140    24231799.754    24231803.902
 -14981190.09349 -11656361.81546  22789579.646    22789579.722    22789583.708
 -22913931.80049 -17837578.47047  21044998.606    21044998.011    21045002.121
 -12013269.69049  -9005962.25046  23646687.091    23646686.390    23646690.166
 02  1 10  3 21 30.0000000  0  8G24G13G10G27G 1G 4G 8G 2
 -20874677.72949 -16242557.97647  21658125.576    21658125.811    21658129.768
 -20781668.58449 -16160698.24447  21555502.342    21555502.446    21555504.290
 -17887174.69249 -13915459.18646  22257384.316    22257383.264    22257387.649
 -22270103.39949 -17334732.88848  20825454.584    20825454.268    20825457.869
  -5331918.53449  -4062661.54245  24248659.072    24248658.943    24248663.302
 -14885205.71749 -11581568.82046  22807844.861    22807845.747    22807848.668
 -22990056.88449 -17896896.69247  21030512.546    21030511.950    21030515.866
 -12077210.64749  -9055786.35146  23634519.458    23634518.293    23634524.688
 02  1 10  3 22  0.0000000  0  8G24G13G10G27G 1G 4G 8G 2
 -20841054.28149 -16216357.90847  21664523.989    21664523.502    21664528.080
 -20716882.00449 -16110215.20247  21567830.815    21567831.261    21567833.043
 -17969894.38449 -13979916.08746  22241643.153    22241642.481    22241646.333
 -22275012.09749 -17338557.84548  20824520.534    20824520.295    20824523.654
  -5243286.93949  -3993597.98845  24265525.144    24265523.558    24265528.634
 -14788972.91949 -11506582.24746  22826157.483    22826157.280    22826161.257
 -23065745.44749 -17955874.76347  21016109.505    21016108.871    21016113.080
 -12140886.76749  -9105404.06746  23622402.143    23622401.432    23622406.138
 02  1 10  3 22 30.0000000  0  8G24G13G10G27G 1G 4G 8G 2
 -20806874.90149 -16189724.65047  21671028.029    21671027.830    21671032.575
 -20651886.92849 -16059569.69747  21580198.915    21580198.989    21580201.214
 -18052382.44849 -14044192.50246  22225946.170    22225945.258    22225949.318
 -22279437.19449 -17342005.96348  20823678.458    20823678.178    20823681.803
  -5154617.85249  -3924505.23845  24282398.226    24282397.946    24282401.600
 -14692494.64449 -11431404.39546  22844516.657    22844516.121    22844521.069
 -23140995.98849 -18014511.51747  21001789.752    21001788.954    21001793.052
 -12204295.69549  -9154813.62046  23610336.005    23610336.044    23610340.007
 02  1 10  3 23  0.0000000  0  8G24G13G10G27G 1G 4G 8G 2
 -20772140.66949 -16162659.03847  21677637.765    21677637.504    21677642.292
 -20586684.37349 -16008762.52447  21592606.550    21592606.799    21592609.058
 -18134636.84849 -14108286.84746  22210293.735    22210292.914    22210296.980
 -22283378.98049 -17345077.48448  20822928.386    20822928.097    20822931.458
  -5065911.87349  -3855383.74445  24299278.401    24299276.891    24299282.812
 -14595773.70949 -11356037.47646  22862921.895    22862921.129    22862926.719
 -23215806.44849 -18072805.35847  20987553.750    20987552.889    20987557.369
 -12267435.26449  -9204013.27446  23598320.963    23598319.194    23598324.513
 02  1 10  3 23 30.0000000  0  8G24G13G10G27G 1G 4G 8G 2
 -20736852.99249 -16135162.17447  21684352.790    21684352.975    21684357.068
 -20521275.19049 -15957794.34247  21605053.551    21605053.942    21605056.050
 -18216655.25349 -14172197.28846  22194686.181    22194685.989    22194689.450
 -22286837.75849 -17347772.62648  20822270.192    20822269.932    20822273.336
  -4977169.61549  -3786233.98145  24316165.290    24316164.260    24316170.004
 -14498812.90149 -11280483.61146  22881372.773    22881373.085    22881377.491
 -23290174.94749 -18130754.80647  20973401.803    20973401.186    20973405.201
 -12330303.03949  -9253001.09346  23586357.272    23586356.545    23586361.796
 02  1 10  3 24  0.0000000  0  8G24G13G10G27G 1G 4G 8G 2
 -20701012.62549 -16107234.64247  21691172.979    21691172.834    21691177.431
 -20455660.43149 -15906665.96947  21617539.674    21617539.968    21617541.843
 -18298435.71149 -14235922.32447  22179123.935    22179123.073    22179126.984
 -22289813.90549 -17350091.69748  20821703.848    20821703.595    20821706.972
  -4888391.73449  -3717056.43145  24333059.123    24333058.134    24333061.555
 -14401615.10849 -11204745.10446  22899868.887    22899869.410    22899873.925
 -23364099.60749 -18188358.40947  20959334.415    20959333.935    20959337.864
 -12392896.55549  -9301775.25246  23574446.353    23574446.300    23574450.145
 02  1 10  3 24 30.0000000  0  8G24G13G10G27G 1G 4G 8G 2
 -20664621.96549 -16078878.30847  21698097.870    21698097.500    21698102.431
 -20389841.55149 -15855378.53747  21630064.632    21630064.578    21630066.959
 -18379976.55849 -14299460.64847  22163607.196    22163606.295    22163610.342
 -22292308.28349 -17352035.36348  20821229.202    20821228.903    20821232.350
  -4799579.20449  -3647851.89645  24349959.482    24349959.534    24349964.542
 -14304183.75349 -11128824.59546  22918409.515    22918409.895    22918414.420
 -23437579.08849 -18245615.11947  20945351.724    20945350.985    20945355.091
 -12455214.05749  -9350334.33246  23562587.797    23562586.211    23562590.305
 02  1 10  3 25  0.0000000  0  8G24G13G10G27G 1G 4G 8G 2
 -20627682.39849 -16050094.26047  21705127.240    21705127.243    21705131.701
 -20323819.35249 -15803932.67947  21642628.268    21642628.520    21642630.453
 -18461275.62849 -14362810.57447  22148136.418    22148135.835    22148139.878
 -22294321.14049 -17353603.82348  20820846.159    20820845.858    20820849.354
  -4710732.52149  -3578620.75845  24366866.596    24366865.820    24366871.025
 -14206521.20249 -11052723.93346  22936994.176    22936994.509    22936998.710
 -23510611.47449 -18302523.45047  20931454.078    20931453.386    20931457.663
 -12517252.83549  -9398676.21646  23550781.948    23550781.343    23550785.801
 02  1 10  3 25 30.0000000  0  8G24G13G10G27G 1G 4G 8G 2
 -20590195.21949 -16020883.49147  21712260.830    21712260.625    21712265.383
 -20257594.87949 -15752329.19847  21655230.323    21655230.746    21655232.386
 -18542331.04549 -14425970.62846  22132711.979    22132710.823    22132715.308
 -22295853.11249 -17354797.55848  20820554.621    20820554.280    20820557.668
  -4621852.50149  -3509363.63145  24383779.918    24383779.421    24383783.865
 -14108630.79449 -10976445.72546  22955622.083    22955622.593    22955627.330
 -23583195.21249 -18359082.17347  20917641.791    20917641.048    20917645.249
 -12579010.95149  -9446799.39346  23539029.812    23539029.299    23539034.491
 02  1 10  3 26  0.0000000  0  8G24G13G10G27G 1G 4G 8G 2
 -20552161.52049 -15991246.87047  21719498.400    21719498.424    21719503.030
 -20191168.93349 -15700568.73247  21667870.740    21667870.985    21667873.110
 -18623140.64349 -14488939.14946  22117334.353    22117333.179    22117337.437
 -22296904.33749 -17355616.69048  20820354.549    20820354.319    20820357.890
  -4532939.44449  -3440080.76845  24400699.330    24400698.778    24400703.642
 -14010514.90149 -10899991.80546  22974292.968    22974293.188    22974297.652
 -23655328.07349 -18415289.57347  20903915.369    20903914.841    20903918.775
 -12640485.73249  -9494701.77646  23527331.487    23527330.288    23527335.122
 02  1 10  3 26 30.0000000  0  8G24G13G10G27G 1G 4G 8G 2
 -20513582.14249 -15961185.04047  21726839.863    21726839.952    21726844.504
 -20124541.42349 -15648651.19747  21680549.501    21680549.628    21680551.951
 -18703701.32449 -14551713.69846  22102004.056    22102003.292    22102007.326
 -22297474.66049 -17356061.09048  20820246.002    20820245.524    20820249.227
  -4443993.12049  -3370771.99245  24417625.378    24417625.450    24417630.069
 -13912175.77049 -10823363.94046  22993006.239    22993006.293    22993011.106
 -23727007.63149 -18471143.75147  20890275.241    20890274.524    20890278.495
 -12701674.17149  -9542381.04246  23515687.455    23515686.739    23515691.637
 02  1 10  3 27  0.0000000  0  8G24G13G10G27G 1G 4G 8G 2
 -20474459.26749 -15930699.70447  21734284.755    21734284.818    21734289.164
 -20057714.69149 -15596578.43647  21693266.232    21693266.614    21693268.790
 -18784012.05649 -14614293.49447  22086721.531    22086721.071    22086724.786
 -22297565.51649 -17356131.88248  20820228.705    20820228.376    20820232.040
  -4355015.10749  -3301438.53545  24434557.337    24434556.978    24434559.333
 -13813616.93849 -10746564.87846  23011761.386    23011762.298    23011766.863
 -23798233.05049 -18526644.05147  20876721.397    20876720.847    20876725.018
 -12762574.97749  -9589836.19546  23504098.415    23504097.782    23504103.065
 02  1 10  3 27 30.0000000  0  8G24G13G10G27G 1G 4G 8G 2
 -20434796.09249 -15899793.36147  21741832.466    21741832.483    21741837.090
 -19990691.03849 -15544352.22747  21706020.433    21706020.475    21706022.346
 -18864072.18449 -14676678.00947  22071486.618    22071486.188    22071489.732
 -22297178.74349 -17355830.49648  20820302.302    20820302.005    20820305.524
  -4266007.54449  -3232082.03045  24451494.949    24451495.642    24451497.986
 -13714842.97249 -10669598.17146  23030557.540    23030557.337    23030562.964
 -23869003.97549 -18581790.20347  20863254.162    20863253.750    20863257.703
 -12823187.25049  -9637066.50346  23492564.239    23492563.747    23492569.088
 02  1 10  3 28  0.0000000  0  8G24G13G10G27G 1G 4G 8G 2
 -20394592.03149 -15868465.55347  21749483.126    21749483.126    21749487.760
 -19923469.46349 -15491971.79047  21718812.275    21718812.439    21718814.632
 -18943877.83749 -14738864.23047  22056300.239    22056300.051    22056303.406
 -22296312.71949 -17355155.66748  20820467.059    20820466.771    20820470.225
  -4176968.79949  -3162701.24845  24468438.427    24468438.383    24468442.077
 -13615854.62949 -10592464.42346  23049394.372    23049394.916    23049400.083
 -23939316.72149 -18636579.33347  20849874.105    20849873.473    20849877.472
 -12883506.58349  -9684068.57146  23481085.807    23481085.383    23481090.575
 02  1 10  3 28 30.0000000  0  8G24G13G10G27G 1G 4G 8G 2
 -20353849.16649 -15836717.89447  21757236.225    21757235.759    21757240.675
 -19856051.11049 -15439438.01947  21731641.572    21731641.757    21731643.544
 -19023427.13549 -14800850.70247  22041162.587    22041162.421    22041165.802
 -22294968.52749 -17354108.23848  20820722.833    20820722.674    20820726.160
  -4087900.11349  -3093297.11045  24485387.647    24485387.989    24485392.412
 -13516655.12949 -10515166.12946  23068271.478    23068272.607    23068276.593
 -24009169.98349 -18691010.42147  20836581.458    20836580.885    20836584.815
 -12943531.09949  -9730840.90346  23469663.558    23469662.361    23469667.852
 02  1 10  3 29  0.0000000  0  8G24G13G10G27G 1G 4G 8G 2
 -20312568.72049 -15804551.34447  21765091.635    21765091.701    21765096.509
 -19788437.15149 -15386751.83247  21744508.068    21744508.160    21744510.186
 -19102717.98949 -14862635.78647  22026074.035    22026073.387    22026077.005
 -22293146.75449 -17352688.67048  20821069.511    20821069.234    20821072.750
  -3998801.91649  -3023870.00945  24502342.671    24502342.421    24502347.163
 -13417247.35049 -10437705.55046  23087188.173    23087188.402    23087193.652
 -24078562.12749 -18745082.20247  20823376.610    20823376.137    20823379.978
 -13003258.62949  -9777381.79946  23458297.444    23458296.959    23458302.581
 02  1 10  3 29 30.0000000  0  8G24G13G10G27G 1G 4G 8G 2
 -20270751.94349 -15771966.86847  21773049.073    21773048.852    21773053.657
 -19720628.09949 -15333913.62047  21757411.673    21757411.677    21757413.723
 -19181747.87049 -14924217.50347  22011035.149    22011033.878    22011037.869
 -22290847.24049 -17350896.83248  20821507.107    20821506.721    20821510.294
  -3909674.15549  -2954419.84345  24519303.281    24519302.670    24519308.171
 -13317633.81049 -10360084.63446  23106144.039    23106144.309    23106149.003
 -24147490.95949 -18798792.94647  20810259.860    20810259.047    20810263.271
 -13062686.37249  -9823689.10446  23446988.672    23446987.828    23446992.920
 02  1 10  3 30  0.0000000  0  8G24G13G10G27G 1G 4G 8G 2
 -20228401.44249 -15738966.51147  21781108.155    21781108.143    21781112.235
 -19652625.42249 -15280924.53247  21770352.135    21770352.249    21770354.475
 -19260515.78649 -14985595.09647  21996046.100    21996045.575    21996049.211
 -22288071.34049 -17348733.78848  20822035.314    20822035.015    20822038.450
  -3820518.39649  -2884947.84745  24536269.150    24536268.285    24536272.373
 -13217818.02149 -10282306.11346  23125138.343    23125138.500    23125142.572
 -24215955.37149 -18852141.81347  20797231.486    20797230.967    20797234.898
 -13121813.13249  -9869761.88646  23435737.122    23435735.418    23435741.872
 02  1 10  3 30 30.0000000  0  8G24G13G10G27G 1G 4G 8G 2
 -20185517.98449 -15705550.85947  21789268.622    21789268.403    21789273.431
 -19584429.67549 -15227784.99747  21783329.369    21783329.515    21783331.816
 -19339018.61049 -15046766.11847  21981107.521    21981106.587    21981111.111
 -22284818.99149 -17346199.48648  20822654.225    20822653.877    20822657.384
  -3731334.46149  -2815453.93345  24553240.378    24553239.536    24553244.281
 -13117801.94749 -10204371.52946  23144170.776    23144171.843    23144175.849
 -24283953.12649 -18905127.04948  20784291.945    20784291.325    20784295.216
 -13180635.83449  -9915597.72646  23424543.374    23424542.727    23424548.211
 02  1 10  3 31  0.0000000  0  8G24G13G10G27G 1G 4G 8G 2
 -20142103.09449 -15671721.10747  21797530.196    21797529.994    21797534.724
 -19516041.33049 -15174495.39447  21796343.274    21796343.595    21796345.694
 -19417254.24549 -15107728.94947  21966219.769    21966219.433    21966222.900
 -22281090.90049 -17343294.47648  20823363.676    20823363.395    20823366.770
  -3642122.95749  -2745938.51645  24570216.863    24570216.213    24570221.384
 -13017588.82249 -10126283.41746  23163240.789    23163240.742    23163245.709
 -24351482.55749 -18957747.36548  20771441.527    20771440.871    20771444.587
 -13239152.21349  -9961194.89446  23413408.069    23413407.175    23413413.290
 02  1 10  3 31 30.0000000  0  8G24G13G10G27G 1G 4G 8G 2
 -20098159.51049 -15637479.38747  21805892.433    21805892.255    21805896.774
 -19447462.44249 -15121057.31547  21809393.428    21809393.621    21809395.882
 -19495221.88249 -15168482.95047  21951383.077    21951382.464    21951386.072
 -22276888.64349 -17340019.98648  20824163.361    20824163.122    20824166.464
  -3552885.35849  -2676402.75645  24587198.147    24587196.908    24587201.650
 -12917182.25149 -10048044.55446  23182347.560    23182348.794    23182352.843
 -24418543.22349 -19010002.40548  20758680.251    20758679.665    20758683.528
 -13297361.05049 -10006552.41546  23402331.364    23402331.253    23402335.894
 02  1 10  3 32  0.0000000  0  8G24G13G10G27G 1G 4G 8G 2
 -20053687.70049 -15602826.05747  21814355.133    21814354.796    21814359.912
 -19378693.22949 -15067470.93147  21822479.786    21822480.011    21822482.248
 -19572918.13849 -15229025.48747  21936597.962    21936597.540    21936601.223
 -22272211.79049 -17336375.67648  20825053.317    20825052.906    20825056.434
  -3463621.19549  -2606846.31145  24604184.533    24604184.737    24604187.456
 -12816584.29749  -9969656.55346  23201490.716    23201491.052    23201495.431
 -24485132.39149 -19061890.04548  20746008.704    20746008.127    20746011.981
 -13355259.20149 -10051667.84546  23391313.875    23391313.011    23391318.698
 02  1 10  3 32 30.0000000  0  8G24G13G10G27G 1G 4G 8G 2
 -20008690.76749 -15567763.54747  21822917.743    21822917.678    21822922.332
 -19309735.62249 -15013737.74447  21835601.959    21835602.137    21835604.565
 -19650341.99749 -15289355.76547  21921864.782    21921864.569    21921867.854
 -22267062.09649 -17332362.92448  20826033.249    20826032.987    20826036.362
  -3374332.21949  -2537270.52745  24621175.654    24621176.015    24621179.611
 -12715799.14749  -9891122.70046  23220669.548    23220669.915    23220674.335
 -24551249.63149 -19113409.94948  20733426.995    20733426.318    20733430.287
 -13412845.79149 -10096540.50646  23380355.495    23380355.147    23380360.113
 02  1 10  3 33  0.0000000  0  8G24G13G10G27G 1G 4G 8G 2
 -19963169.60049 -15532292.53647  21831580.158    21831579.882    21831584.887
 -19240589.36949 -14959857.55847  21848760.049    21848759.818    21848762.567
 -19727490.57249 -15349471.53747  21907183.975    21907183.073    21907187.008
 -22261439.22549 -17327981.46148  20827103.213    20827102.797    20827106.601
  -3285018.02949  -2467675.10145  24638171.475    24638171.279    24638176.197
 -12614828.19849  -9812444.05946  23239883.728    23239884.033    23239889.235
 -24616892.29449 -19164560.05148  20720935.556    20720934.835    20720938.890
 -13470117.33249 -10141167.65746  23369457.035    23369456.282    23369461.390
 02  1 10  3 33 30.0000000  0  8G24G13G10G27G 1G 4G 8G 2
 -19917126.17949 -15496414.57947  21840341.914    21840342.006    21840346.708
 -19171256.09849 -14905831.64447  21861953.809    21861953.924    21861956.025
 -19804362.28849 -15409371.57947  21892555.822    21892554.820    21892558.691
 -22255344.30549 -17323232.17348  20828263.021    20828262.844    20828266.388
  -3195679.54449  -2398060.79245  24655172.190    24655172.599    24655178.259
 -12513674.96949  -9733623.38946  23259132.535    23259132.837    23259137.369
 -24682059.23449 -19215339.46748  20708534.675    20708533.920    20708538.063
 -13527071.84749 -10185547.78346  23358618.903    23358617.645    23358623.148
 02  1 10  3 34  0.0000000  0  8G24G13G10G27G 1G 4G 8G 2
 -19870560.42549 -15460129.60247  21849203.029    21849202.762    21849207.672
 -19101734.82849 -14851659.23847  21875183.334    21875183.256    21875185.782
 -19880952.97149 -15469052.62547  21877981.054    21877980.110    21877983.934
 -22248776.11249 -17318114.09548  20829512.926    20829512.738    20829516.137
  -3106315.39549  -2328426.41445  24672177.598    24672176.438    24672183.604
 -12412340.58149  -9654661.55346  23278415.784    23278415.908    23278421.308
 -24746747.12449 -19265745.58648  20696224.902    20696224.202    20696228.153
 -13583705.38649 -10229677.79346  23347841.720    23347841.726    23347846.398
 02  1 10  3 34 30.0000000  0  8G24G13G10G27G 1G 4G 8G 2
 -19823476.86049 -15423441.14847  21858162.747    21858163.139    21858167.798
 -19032028.89049 -14797342.94247  21888447.868    21888447.933    21888450.180
 -19957263.22549 -15528515.16247  21863459.677    21863459.032    21863463.014
 -22241738.13449 -17312629.95348  20830852.164    20830851.971    20830855.328
  -3016928.84849  -2258774.59345  24689187.042    24689186.032    24689194.330
 -12310830.37049  -9575562.73246  23297732.477    23297732.076    23297737.751
 -24810957.04249 -19315779.26748  20684006.131    20684005.711    20684009.681
 -13640018.57349 -10273558.18346  23337126.019    23337125.614    23337130.839
 02  1 10  3 35  0.0000000  0  7G24G13G10G27G 4G 8G 2
 -19775871.50949 -15386346.10347  21867221.821    21867221.727    21867226.849
 -18962133.80549 -14742879.25447  21901748.425    21901748.615    21901750.779
 -20033285.46049 -15587753.26347  21848993.110    21848992.367    21848996.325
 -22234225.27749 -17306775.77648  20832281.841    20832281.622    20832285.158
 -12209141.70049  -9496324.83745  23317083.173    23317082.510    23317088.956
 -24874681.78949 -19365434.88748  20671879.709    20671879.166    20671883.226
 -13696003.70949 -10317182.96346  23326472.616    23326472.099    23326476.744
 02  1 10  3 35 30.0000000  0  7G24G13G10G27G 4G 8G 2
 -19727751.13349 -15348849.73947  21876378.810    21876378.798    21876383.857
 -18892054.95149 -14688272.36747  21915084.021    21915084.283    21915087.161
 -20109022.00149 -15646768.75447  21834580.883    21834580.504    21834584.086
 -22226242.90349 -17300555.74048  20833800.868    20833800.490    20833804.198
 -12107281.97749  -9416953.65645  23336466.408    23336467.660    23336472.060
 -24937924.44549 -19414714.85348  20659845.053    20659844.627    20659848.465
 -13751663.31549 -10360554.06546  23315880.948    23315881.001    23315885.250
 02  1 10  3 36  0.0000000  0  7G24G13G10G27G 4G 8G 2
 -19679119.09049 -15310954.67247  21885633.203    21885633.481    21885637.586
 -18821795.19349 -14633524.51947  21928454.098    21928454.397    21928456.352
 -20184472.56449 -15705561.39947  21820223.120    21820222.514    21820226.058
 -22217793.64349 -17293971.89848  20835408.643    20835408.517    20835411.952
 -12005256.09149  -9337452.98245  23355881.284    23355881.530    23355887.091
 -25000685.64949 -19463619.66348  20647901.968    20647901.315    20647905.337
 -13806997.08949 -10403671.27246  23305351.352    23305350.282    23305354.981
 02  1 10  3 36 30.0000000  0  7G24G13G10G27G 4G 8G 2
 -19629976.57249 -15272661.83347  21894984.837    21894984.757    21894989.348
 -18751354.57049 -14578635.73647  21941858.530    21941858.717    21941861.153
 -20259634.31249 -15764128.99247  21805920.290    21805919.656    21805923.709
 -22208877.52949 -17287024.27648  20837105.351    20837105.132    20837108.750
 -11903066.10949  -9257824.45345  23375327.576    23375328.377    23375333.065
 -25062962.93049 -19512147.39548  20636050.977    20636050.370    20636054.351
 -13862002.29649 -10446532.43846  23294884.052    23294883.388    23294887.802
 02  1 10  3 37  0.0000000  0  7G24G13G10G27G 4G 8G 2
 -19580325.05249 -15233972.36247  21904433.265    21904433.196    21904437.932
 -18680733.38749 -14523606.25347  21955297.286    21955297.364    21955300.176
 -20334504.45849 -15822469.36347  21791673.022    21791671.929    21791675.552
 -22199494.87549 -17279713.11448  20838890.798    20838890.516    20838894.174
 -11800714.37549  -9178069.88245  23394804.656    23394805.113    23394809.664
 -25124754.36649 -19560296.54548  20624292.420    20624291.940    20624295.854
 -13916676.12349 -10489135.41146  23284479.978    23284479.990    23284483.951
 02  1 10  3 37 30.0000000  0  7G24G13G10G27G 4G 8G 2
 -19530166.10149 -15194887.49847  21913978.161    21913977.989    21913983.159
 -18609932.53149 -14468436.77447  21968770.256    21968770.457    21968772.702
 -20409080.61549 -15880580.65447  21777481.600    21777480.654    21777484.684
 -22189646.05949 -17272038.71048  20840764.973    20840764.759    20840768.222
 -11698203.51849  -9098191.30945  23414311.866    23414311.469    23414316.246
 -25186058.28749 -19608065.81848  20612626.704    20612626.236    20612630.002
 -13971015.93549 -10531478.10646  23274139.473    23274138.619    23274143.121
 02  1 10  3 38  0.0000000  0  7G24G13G10G27G 4G 8G 2
 -19479501.26949 -15155408.43647  21923619.452    21923619.374    21923624.431
 -18538952.61649 -14413127.76347  21982277.328    21982277.306    21982279.707
 -20483360.93549 -15938461.42647  21763346.576    21763345.529    21763350.012
 -22179331.65649 -17264001.50848  20842727.765    20842727.530    20842731.039
 -11595536.08949  -9018190.73745  23433848.834    23433849.454    23433853.023
 -25246872.95349 -19655453.84848  20601054.067    20601053.557    20601057.369
 -14025019.72149 -10573558.96146  23263862.730    23263861.794    23263867.056
 02  1 10  3 38 30.0000000  0  7G24G13G10G27G 4G 8G 2
 -19428332.53349 -15115536.72147  21933356.588    21933356.483    21933361.595
 -18467794.08049 -14357679.57347  21995818.316    21995818.362    21995820.582
 -20557342.89049 -15996109.69647  21749268.217    21749267.425    21749271.366
 -22168552.40849 -17255602.08748  20844778.987    20844778.830    20844782.222
 -11492715.02649  -8938070.44745  23453415.067    23453415.378    23453419.742
 -25307196.94049 -19702459.53548  20589574.764    20589574.174    20589577.813
 -14078685.41449 -10615376.37646  23253650.573    23253650.323    23253655.320
 02  1 10  3 39  0.0000000  0  7G24G13G10G27G 4G 8G 2
 -19376661.36549 -15075273.50647  21943189.299    21943188.836    21943194.185
 -18396457.64549 -14302092.75647  22009393.192    22009393.534    22009395.284
 -20631023.83849 -16053523.42447  21735247.157    21735246.462    21735250.224
 -22157308.70549 -17246840.75948  20846918.618    20846918.299    20846921.793
 -11389742.72949  -8857832.29945  23473009.985    23473010.533    23473014.504
 -25367028.42449 -19749081.45148  20578189.269    20578188.626    20578192.433
 -14132010.55749 -10656928.42546  23243503.224    23243502.738    23243507.068
 02  1 10  3 39 30.0000000  0  7G24G13G10G27G 4G 8G 2
 -19324490.81649 -15034621.15947  21953116.973    21953116.883    21953121.699
 -18324944.77749 -14246368.46047  22023001.672    22023001.803    22023004.200
 -20704402.47649 -16110701.58047  21721283.704    21721282.999    21721286.555
 -22145602.09349 -17237718.71948  20849146.311    20849145.967    20849149.668
 -11286622.80449  -8777479.11845  23492633.056    23492632.879    23492638.224
 -25426366.84749 -19795319.15748  20566897.485    20566896.884    20566900.570
 -14184993.89849 -10698214.12346  23233420.764    23233420.658    23233424.887
 02  1 10  3 40  0.0000000  0  7G24G13G10G27G 4G 8G 2
 -19271822.46149 -14993580.91747  21963139.544    21963139.335    21963144.503
 -18253256.28749 -14190507.31447  22036643.598    22036643.589    22036646.111
 -20777476.64749 -16167642.49447  21707378.148    21707377.455    21707381.336
 -22133433.25649 -17228236.50748  20851461.949    20851461.803    20851465.186
 -11183357.98849  -8697013.04345  23512283.743    23512283.615    23512288.980
 -25485210.47849 -19841171.31848  20555699.881    20555699.455    20555702.942
 -14237632.91249 -10739231.51346  23223403.840    23223402.703    23223408.160
 02  1 10  3 40 30.0000000  0  7G24G13G10G27G 4G 8G 2
 -19218658.11249 -14952154.17747  21973256.390    21973256.341    21973261.069
 -18181393.48849 -14134510.33947  22050318.548    22050318.382    22050321.156
 -20850244.25149 -16224344.52347  21693530.918    21693530.162    21693533.940
 -22120803.40049 -17218395.05848  20853865.354    20853864.970    20853868.415
 -11079951.41449  -8616436.50745  23531961.338    23531961.212    23531966.314
 -25543558.39449 -19886637.20348  20544596.645    20544596.132    20544599.760
 -14289926.02949 -10779979.38346  23213452.790    23213452.591    23213456.865
 02  1 10  3 41  0.0000000  0  7G24G13G10G27G 4G 8G 2
 -19164998.26049 -14910341.34447  21983467.515    21983467.512    21983472.359
 -18109354.70849 -14078376.25047  22064027.008    22064027.262    22064029.464
 -20922700.94949 -16280804.28947  21679742.855    21679741.897    21679746.099
 -22107711.06449 -17208193.23448  20856356.691    20856356.395    20856359.821
 -10976403.47049  -8535749.82045  23551665.908    23551666.960    23551670.599
 -25601406.80349 -19931713.86648  20533588.407    20533587.813    20533591.538
 -14341868.69649 -10820454.16746  23203568.406    23203566.935    23203571.716
 02  1 10  3 41 30.0000000  0  7G24G13G10G27G 4G 8G 2
 -19110847.17249 -14868145.72147  21993772.173    21993772.038    21993776.933
 -18037143.37849 -14022107.70747  22077768.391    22077768.369    22077771.136
 -20994847.37649 -16337022.28247  21666013.847    21666012.991    21666017.071
 -22094159.77049 -17197633.78348  20858935.424    20858935.270    20858938.490
 -10872719.62249  -8454957.21245  23571396.337    23571395.912    23571401.583
 -25658757.26149 -19976402.51248  20522674.971    20522674.408    20522678.191
 -14393461.49449 -10860656.33146  23193750.569    23193749.751    23193754.792
 02  1 10  3 42  0.0000000  0  7G24G13G10G27G 4G 8G 2
 -19056205.78249 -14825568.05447  22004170.121    22004169.920    22004175.087
 -17964759.04749 -13965704.35747  22091542.703    22091543.083    22091545.506
 -21066679.91649 -16392995.68947  21652344.542    21652343.864    21652347.680
 -22080149.12149 -17186716.39448  20861601.571    20861601.264    20861604.724
 -10768901.70049  -8374060.13945  23591152.288    23591152.445    23591156.549
 -25715606.79649 -20020700.83448  20511856.851    20511856.277    20511860.096
 -14444701.32249 -10900583.45846  23183999.852    23183999.091    23184003.796
 02  1 10  3 42 30.0000000  0  7G24G13G10G27G 4G 8G 2
 -19001077.09349 -14782610.66547  22014660.763    22014660.528    22014665.221
 -17892203.89649 -13909167.90447  22105349.597    22105349.815    22105352.037
 -21138197.46549 -16448723.65047  21638735.258    21638734.426    21638738.453
 -22065681.03449 -17175442.56048  20864354.777    20864354.528    20864357.920
 -10664953.67949  -8293061.69745  23610933.032    23610933.291    23610938.043
 -25771955.52749 -20064608.91848  20501134.006    20501133.301    20501137.164
 -14495587.17349 -10940234.75446  23174316.610    23174316.005    23174321.064
 02  1 10  3 43  0.0000000  0  7G24G13G10G27G 4G 8G 2
 -18945463.17849 -14739275.18147  22025243.764    22025243.951    22025248.738
 -17819478.26349 -13852498.59947  22119188.780    22119189.074    22119191.455
 -21209397.64149 -16504204.30547  21625186.331    21625185.725    21625189.650
 -22050756.05149 -17163812.70348  20867194.920    20867194.552    20867198.182
 -10560877.93149  -8211963.73345  23630738.054    23630738.360    23630743.050
 -25827801.78049 -20108125.45848  20490506.794    20490506.168    20490510.004
 -14546116.70049 -10979608.39846  23164701.086    23164700.611    23164705.666
 02  1 10  3 43 30.0000000  0  7G24G13G10G27G 4G 8G 2
 -18889365.81749 -14695562.98247  22035918.823    22035918.961    22035923.738
 -17746582.79849 -13795696.96247  22133060.336    22133060.651    22133062.847
 -21280278.33849 -16559436.01847  21611698.175    21611697.343    21611701.154
 -22035374.98249 -17151827.45148  20870121.774    20870121.545    20870124.882
 -10456677.20949  -8130768.36545  23650566.904    23650566.633    23650570.986
 -25883144.16449 -20151249.37748  20479975.454    20479974.758    20479978.510
 -14596287.84849 -11018702.78746  23155153.920    23155152.971    23155158.197
 02  1 10  3 44  0.0000000  0  7G24G13G10G27G 4G 8G 2
 -18832785.82449 -14651474.71747  22046685.653    22046685.317    22046690.420
 -17673517.18549 -13738762.73547  22146964.256    22146964.605    22146967.332
 -21350836.12149 -16614416.10647  21598271.400    21598270.598    21598274.875
 -22019537.56049 -17139486.60248  20873135.549    20873135.239    20873138.766
 -10352353.20449  -8049476.95045  23670419.060    23670419.819    23670424.155
 -25937980.21949 -20193978.75448  20469540.465    20469539.912    20469543.723
 -14646097.31749 -11057515.35346  23145675.409    23145674.823    23145679.769
 02  1 10  3 44 30.0000000  0  7G24G13G10G27G 4G 8G 2
 -18775726.33949 -14607012.81347  22057543.685    22057543.231    22057548.450
 -17600283.07349 -13681697.21247  22160900.235    22160900.548    22160903.377
 -21421069.61049 -16669143.49647  21584906.476    21584905.671    21584909.836
 -22003245.62549 -17126791.58748  20876235.760    20876235.453    20876238.931
 -10247909.49249  -7968092.25945  23690294.119    23690295.040    23690297.882
 -25992309.68749 -20236313.38348  20459201.914    20459201.270    20459205.112
 -14695543.98749 -11096045.20446  23136266.005    23136264.967    23136270.639
 02  1 10  3 45  0.0000000  0  7G24G13G10G27G 4G 8G 2
 -18718190.14749 -14562179.45247  22068492.432    22068492.670    22068497.460
 -17526881.68849 -13624501.35347  22174868.166    22174868.028    22174870.887
 -21490977.23649 -16723616.96647  21571603.436    21571602.530    21571606.769
 -21986500.60049 -17113743.52148  20879422.312    20879421.917    20879425.580
 -10143349.69349  -7886617.10645  23710191.184    23710191.126    23710195.907
 -26046131.67449 -20278252.57748  20448959.933    20448959.280    20448963.202
 -14744626.57849 -11134291.36946  23126926.013    23126925.653    23126930.488
 02  1 10  3 45 30.0000000  0  7G24G13G10G27G 4G 8G 2
 -18660179.15049 -14516976.11847  22079531.641    22079531.478    22079536.637
 -17453313.68649 -13567175.66247  22188867.675    22188868.126    22188870.850
 -21560556.53549 -16777834.60047  21558362.874    21558362.166    21558366.185
 -21969303.14649 -17100342.90048  20882694.858    20882694.421    20882698.051
 -10038676.28549  -7805053.43045  23730109.773    23730109.307    23730114.317
 -26099444.81349 -20319795.26248  20438814.792    20438814.093    20438817.969
 -14793342.98749 -11172252.18846  23117655.705    23117654.901    23117659.475
 02  1 10  3 46  0.0000000  0  7G24G13G10G27G 4G 8G 2
 -18601695.02949 -14471404.12047  22090660.887    22090661.004    22090665.891
 -17379579.44149 -13509720.42847  22202898.863    22202899.313    22202901.695
 -21629805.04949 -16831794.47747  21545185.342    21545184.729    21545188.827
 -21951653.96049 -17086590.28548  20886053.356    20886053.146    20886056.642
  -9933891.74849  -7723403.15745  23750049.309    23750049.163    23750053.762
 -26152247.72149 -20360940.36748  20428766.659    20428766.249    20428769.926
 -14841690.89949 -11209925.88146  23108455.380    23108455.109    23108459.911
 02  1 10  3 46 30.0000000  0  7G24G13G10G27G 4G 8G 2
 -18542739.42949 -14425464.72147  22101879.757    22101879.417    22101884.570
 -17305679.20549 -13452135.85347  22216961.617    22216961.857    22216964.566
 -21698720.11649 -16885494.52447  21532071.262    21532070.458    21532074.336
 -21933553.31649 -17072485.88448  20889497.793    20889497.642    20889501.045
  -9828998.33949  -7641668.06345  23770009.747    23770010.184    23770014.409
 -26204538.40149 -20401686.33148  20418816.083    20418815.388    20418819.411
 -14889667.40549 -11247310.15746  23099325.828    23099325.260    23099329.261
 02  1 10  3 47  0.0000000  0  7G24G13G10G27G 4G 8G 2
 -18483316.76149 -14379161.37847  22113187.502    22113187.229    22113192.446
 -17231616.18549 -13394424.43147  22231055.408    22231055.700    22231058.291
 -21767301.59749 -16938934.63647  21519020.635    21519019.713    21519023.735
 -21915004.68149 -17058032.40348  20893027.502    20893027.218    20893030.754
  -9724000.80749  -7559851.81945  23789990.189    23789990.482    23789994.584
 -26256318.02049 -20442034.06848  20408962.724    20408962.199    20408965.981
 -14937273.17749 -11284405.54046  23090266.652    23090265.082    23090270.295
 02  1 10  3 47 30.0000000  0  7G24G13G10G27G 4G 8G 2
 -18423428.00249 -14332494.85047  22124583.972    22124584.349    22124588.869
 -17157389.89349 -13336585.78347  22245180.330    22245180.812    22245183.066
 -21835546.30149 -16992112.32647  21506034.100    21506033.363    21506036.982
 -21896007.78949 -17043229.63348  20896642.465    20896642.146    20896645.572
  -9618901.10649  -7477955.95745  23809989.965    23809990.656    23809995.792
 -26307584.14949 -20481981.68648  20399207.122    20399206.683    20399210.433
 -14984505.09149 -11321209.62346  23081278.582    23081277.814    23081282.796
 02  1 10  3 48  0.0000000  0  7G24G13G10G27G 4G 8G 2
 -18363074.87349 -14285466.46747  22136068.848    22136068.559    22136073.930
 -17083000.15949 -13278619.76847  22259336.234    22259336.502    22259339.261
 -21903451.20149 -17045025.22847  21493112.176    21493111.349    21493115.424
 -21876562.94049 -17028077.80248  20900342.710    20900342.304    20900345.996
  -9513701.32949  -7395982.14745  23830008.842    23830009.688    23830014.005
 -26358335.24449 -20521527.97748  20389549.455    20389548.659    20389552.759
 -15031360.49549 -11357720.30846  23072362.290    23072361.147    23072367.078
 02  1 10  3 48 30.0000000  0  7G24G13G10G27G 4G 8G 2
 -18302259.99949 -14238078.30147  22147641.524    22147641.117    22147646.124
 -17008448.31449 -13220527.45446  22273523.007    22273523.521    22273525.686
 -21971014.55849 -17097671.99647  21480255.266    21480254.419    21480258.522
 -21856671.77149 -17012578.19348  20904127.834    20904127.694    20904131.028
  -9408404.83949  -7313932.95245  23850046.343    23850046.137    23850050.531
 -26408570.46249 -20560672.29148  20379989.969    20379989.507    20379993.258
 -15077838.19149 -11393936.68246  23063517.849    23063516.250    23063521.528
 02  1 10  3 49  0.0000000  0  7G24G13G10G27G 4G 8G 2
 -18240986.28049 -14190332.57447  22159301.432    22159301.305    22159306.269
 -16933735.75549 -13162309.91446  22287740.291    22287740.398    22287743.255
 -22038234.93049 -17150051.49447  21467463.591    21467462.335    21467466.708
 -21836335.64949 -16996731.86048  20907997.711    20907997.385    20908000.724
  -9303014.82749  -7231810.87245  23870101.428    23870100.993    23870106.661
 -26458289.23749 -20599414.17348  20370528.780    20370528.117    20370531.966
 -15123936.68249 -11429857.55646  23054745.441    23054744.263    23054750.387
 02  1 10  3 49 30.0000000  0  7G24G13G10G27G 4G 8G 2
 -18179255.17249 -14142230.44547  22171048.596    22171048.762    22171053.526
 -16858862.42249 -13103967.09346  22301988.206    22301988.455    22301991.030
 -22105109.35849 -17202161.44347  21454737.799    21454737.135    21454741.152
 -21815554.83249 -16980539.01848  20911952.230    20911951.947    20911955.399
  -9197533.27749  -7149617.48845  23890173.873    23890173.657    23890178.510
 -26507489.67049 -20637752.16048  20361166.173    20361165.508    20361169.511
 -15169653.27649 -11465480.87046  23046045.783    23046045.964    23046049.708
 02  1 10  3 50  0.0000000  0  7G24G13G10G27G 4G 8G 2
 -18117070.81549 -14093775.13547  22182881.945    22182881.451    22182886.977
 -16783830.82149 -13045500.94046  22316266.307    22316266.880    22316269.038
 -22171637.67649 -17254001.68647  21442077.950    21442077.409    21442081.482
 -21794332.31549 -16964001.98948  20915990.718    20915990.271    20915993.706
  -9091964.98549  -7067356.49745  23910262.825    23910263.019    23910267.347
 -26556172.96649 -20675687.18148  20351902.041    20351901.592    20351905.414
 -15214987.95549 -11500806.58246  23037419.006    23037418.477    23037422.554
 02  1 10  3 50 30.0000000  0  7G24G13G10G27G 4G 8G 2
 -18054432.76849 -14044966.31147  22194801.557    22194801.738    22194806.897
 -16708639.22749 -12986910.12246  22330574.919    22330575.045    22330577.741
 -22237814.72449 -17305568.21347  21429484.919    21429484.177    21429488.147
 -21772666.29449 -16947119.37548  20920113.634    20920113.287    20920116.702
  -8986310.07449  -6985028.01445  23930368.206    23930368.331    23930372.705
 -26604334.81749 -20713215.88448  20342737.190    20342736.606    20342740.464
 -15259936.05649 -11535831.06546  23028865.663    23028864.679    23028869.685
 02  1 10  3 51  0.0000000  0  7G24G13G10G27G 4G 8G 2
 -17991345.46749 -13995807.40447  22206806.714    22206806.538    22206811.743
 -16633290.24949 -12928196.65446  22344913.357    22344913.188    22344916.155
 -22303640.59249 -17356861.10147  21416958.706    21416958.188    21416961.820
 -21750559.99349 -16929893.68348  20924320.269    20924320.095    20924323.668
  -8880573.34549  -6902635.78345  23950489.199    23950488.692    23950494.384
 -26651976.59949 -20750339.33848  20333671.259    20333670.733    20333674.728
 -15304498.12049 -11570554.73746  23020385.875    23020385.739    23020389.741
 02  1 10  3 51 30.0000000  0  7G24G13G10G27G 4G 8G 2
 -17927811.13949 -13946300.16447  22218896.941    22218897.287    22218902.285
 -16557784.60849 -12869361.12346  22359281.532    22359281.102    22359284.499
 -22369113.19749 -17407878.71047  21404499.690    21404498.904    21404502.937
 -21728014.47349 -16912325.74648  20928610.555    20928610.424    20928613.801
  -8774757.64449  -6820182.01645  23970625.093    23970625.092    23970630.275
 -26699097.14149 -20787056.62748  20324704.546    20324704.090    20324707.953
 -15348672.29749 -11604976.15846  23011979.822    23011979.408    23011983.702
 02  1 10  3 52  0.0000000  0  7G24G13G10G27G 4G 8G 2
 -17863830.86349 -13896445.44047  22231072.075    22231072.279    22231077.121
 -16482121.51949 -12810402.90046  22373679.667    22373679.624    22373682.391
 -22434228.52849 -17458617.93647  21392108.692    21392108.002    21392111.386
 -21705029.33249 -16894415.24848  20932984.483    20932984.307    20932987.726
  -8668864.17349  -6737667.65445  23990776.151    23990775.941    23990781.570
 -26745694.06849 -20823365.90948  20315837.443    20315836.949    20315840.673
 -15392455.21449 -11639092.69646  23003648.200    23003646.947    23003653.023
 02  1 10  3 52 30.0000000  0  7G24G13G10G27G 4G 8G 2
 -17799409.04049 -13846246.64847  22243331.153    22243330.733    22243335.980
 -16406303.91749 -12751324.27746  22388107.270    22388107.885    22388109.999
 -22498986.96849 -17509079.05547  21379785.600    21379784.973    21379788.497
 -21681607.85249 -16876164.74548  20937441.472    20937441.201    20937444.616
  -8562897.76949  -6655096.45545  24010940.951    24010940.612    24010946.231
 -26791768.49749 -20859268.05048  20307069.800    20307069.338    20307073.187
 -15435847.15649 -11672904.58246  22995391.005    22995390.542    22995395.221
 02  1 10  3 53  0.0000000  0  7G24G13G10G27G 4G 8G 2
 -17734546.06549 -13795704.10747  22255674.077    22255674.117    22255679.192
 -16330330.63749 -12692124.32846  22402564.545    22402565.017    22402567.265
 -22563383.90549 -17559258.48647  21367531.315    21367530.746    21367534.323
 -21657749.02349 -16857573.44548  20941981.611    20941981.258    20941984.729
  -8456859.50449  -6572469.26445  24031119.429    24031118.923    24031123.639
 -26837317.46649 -20894760.73648  20298402.161    20298401.649    20298405.420
 -15478844.44749 -11706408.94546  22987208.834    22987207.827    22987213.314
 02  1 10  3 53 30.0000000  0  7G24G13G10G27G 4G 8G 2
 -17669245.07449 -13744820.25747  22268100.463    22268100.185    22268105.270
 -16254203.13649 -12632804.22446  22417051.201    22417051.318    22417053.778
 -22627417.87949 -17609155.08847  21355346.005    21355345.052    21355348.976
 -21633454.65849 -16838642.77348  20946604.694    20946604.447    20946607.823
  -8350752.38549  -6489788.40445  24051310.853    24051310.664    24051315.284
 -26882340.69349 -20929843.75748  20289834.476    20289833.880    20289837.609
 -15521445.73249 -11739604.73846  22979102.097    22979101.529    22979106.474
 02  1 10  3 54  0.0000000  0  7G24G13G10G27G 4G 8G 2
 -17603508.23349 -13693596.78547  22280609.839    22280610.314    22280615.172
 -16177921.65249 -12573364.14346  22431567.130    22431567.209    22431569.649
 -22691087.14549 -17658767.50947  21343230.115    21343229.570    21343233.191
 -21608725.91449 -16819373.62648  20951310.426    20951310.200    20951313.558
  -8244579.54049  -6407056.32545  24071514.925    24071514.577    24071519.751
 -26926837.22149 -20964516.36448  20281367.065    20281366.362    20281370.393
 -15563649.58049 -11772490.84246  22971070.970    22971070.569    22971074.690
 02  1 10  3 54 30.0000000  0  7G24G13G10G27G 4G 8G 2
 -17537338.69049 -13642036.13947  22293201.523    22293201.418    22293206.658
 -16101487.80949 -12513805.32746  22446111.947    22446112.120    22446114.262
 -22754390.02149 -17708094.41847  21331183.940    21331183.039    21331187.007
 -21583564.41149 -16799767.25848  20956098.454    20956098.155    20956101.525
  -8138344.35049  -6324275.68545  24091730.592    24091729.373    24091735.856
 -26970806.76949 -20998778.33348  20272999.942    20272999.485    20273003.220
 -15605454.77749 -11805066.30546  22963115.770    22963115.006    22963119.973
 02  1 10  3 55  0.0000000  0  8G28G24G13G10G27G 4G 8G 2
  -5227904.44749  -3638986.08145  24793591.081    24793590.375    24793594.439
 -17470739.31549 -13590140.56547  22305874.878    22305874.874    22305880.663
 -16024902.76149 -12454128.69946  22460685.485    22460685.631    22460688.152
 -22817325.07949 -17757134.72247  21319207.811    21319207.110    21319210.853
 -21557972.14649 -16779825.23148  20960968.550    20960968.194    20960971.654
  -8032050.08749  -6241449.02545  24111957.545    24111957.329    24111963.104
 -27014249.24049 -21032629.60048  20264733.112    20264732.528    20264736.210
 -15646860.37849 -11837330.40046  22955236.469    22955235.711    22955240.134
 02  1 10  3 55 30.0000000  0  8G28G24G13G10G27G 4G 8G 2
  -5329929.50849  -3718486.15445  24774176.483    24774176.355    24774179.438
 -17403712.93649 -13537912.26547  22318629.626    22318630.084    22318635.179
 -15948167.36749 -12394334.92746  22475287.773    22475287.982    22475290.448
 -22879889.72749 -17805886.40347  21307302.165    21307301.572    21307305.161
 -21531949.96449 -16759548.21648  20965920.422    20965920.165    20965923.794
  -7925699.24049  -6158578.27445  24132195.410    24132194.969    24132199.686
 -27057163.54449 -21066069.31148  20256566.767    20256566.511    20256570.031
 -15687864.34549 -11869281.53646  22947433.679    22947433.163    22947437.955
 02  1 10  3 56  0.0000000  0  8G28G24G13G10G27G 4G 8G 2
  -5431970.47649  -3797998.61345  24754758.805    24754758.737    24754762.433
 -17336259.88749 -13485351.48247  22331465.699    22331466.268    22331470.767
 -15871280.71849 -12334423.27246  22489918.897    22489919.623    22489921.318
 -22942080.38149 -17854346.64547  21295467.706    21295466.845    21295470.918
 -21505497.69549 -16738936.04948  20970954.057    20970953.711    20970957.203
  -7819293.28049  -6075664.55545  24152443.874    24152444.091    24152448.646
 -27099547.15549 -21099095.48248  20248501.424    20248500.925    20248504.590
 -15728463.49649 -11900917.21746  22939707.880    22939707.061    22939711.838
 02  1 10  3 56 30.0000000  0  8G28G24G13G10G27G 4G 8G 2
  -5534025.03449  -3877521.66945  24735338.508    24735338.062    24735341.660
 -17268383.73449 -13432461.00646  22344382.250    22344382.286    22344386.964
 -15794244.41349 -12274395.01146  22504578.447    22504579.024    22504580.796
 -23003895.38249 -17902514.18047  21283704.705    21283704.188    21283707.696
 -21478617.05649 -16717990.10248  20976069.302    20976069.100    20976072.391
  -7712835.57249  -5992710.51445  24172702.112    24172702.896    24172707.223
 -27141400.14949 -21131708.19448  20240537.077    20240536.518    20240540.256
 -15768656.90949 -11932236.74546  22932059.276    22932058.186    22932063.529
 02  1 10  3 57  0.0000000  0  8G28G24G13G10G27G 4G 8G 2
  -5636091.05449  -3957053.64645  24715916.025    24715915.678    24715919.289
 -17200087.40149 -13379243.12746  22357378.589    22357378.319    22357384.073
 -15717059.01849 -12214250.57746  22519266.358    22519266.276    22519269.604
 -23065333.06049 -17950387.69447  21272013.551    21272012.822    21272016.575
 -21451309.37349 -16696711.38648  20981265.809    20981265.552    20981269.031
  -7606329.23749  -5909718.59545  24192969.757    24192971.025    24192974.659
 -27182721.75149 -21163906.82748  20232673.811    20232673.292    20232677.056
 -15808443.13449 -11963238.97946  22924488.035    22924487.288    22924491.915
